ID,City,State,Latitude,Longitude,Tot
0,Hoover,AL,33.3503765,-86.83440279644964,21
1,Vestavia Hills,AL,33.4487989,-86.7879492,2
2,Danville,AL,33.5923261,-86.7699903,2
3,Fairhope,AL,30.5231647,-87.9028458,9
4,Birmingham,AL,33.5206824,-86.8024326,82
5,Anniston,AL,33.6624824,-85.8283224,16
6,Semmes,AL,30.778688,-88.2588427,3
7,jackson,AL,34.7692447,-85.9867941,1
8,Mulga,AL,33.5498286,-86.9741612,1
9,Gadsden,AL,34.010929,-85.9989596,16
10,Brent,AL,32.9373463,-87.1647184,2
11,Gulf Shores,AL,30.2711224,-87.6893826,26
12,Huntsville,AL,34.729847,-86.5859011,82
13,Morris,AL,33.747724,-86.8091343,3
14,Robertsdale,AL,30.5552959,-87.7109526,4
15,Dothan,AL,31.2237434,-85.3933906,35
16,Hartselle,AL,34.4435937,-86.9347899,6
17,Fyffe,AL,34.4470207,-85.9039621,4
18,Mobile,AL,30.6867339,-88.0848929,68
19,Foley,AL,30.4065868,-87.6835974,11
20,Cordova,AL,33.759672,-87.1831681,4
21,Guntersville,AL,34.3581474,-86.2947041,8
22,Montgomery,AL,32.3669656,-86.3006485,30
23,Orange Beach,AL,30.2828398,-87.62460710389821,15
24,TRUSSVILLE,AL,33.686992000000004,-86.53493287907703,1
25,Cullman,AL,34.1335332,-86.8779268,17
26,Opelika,AL,32.6454116,-85.3782795,2
27,Pine Hill,AL,31.9795943,-87.5880561,1
28,Harvest,AL,34.8556441,-86.7508323,4
29,Jemison,AL,32.9596424,-86.7452105,1
30,Loxley,AL,30.6182476,-87.7530454,1
31,Rogersville,AL,34.8256204,-87.2945325,4
32,Chickasaw,AL,30.7637991,-88.0747222,2
33,Fort Payne,AL,34.4442547,-85.7196893,13
34,Gardendale,AL,33.6601033,-86.8127702,11
35,Calera,AL,33.1574625,-86.71061567975207,3
36,Rainbow City,AL,33.9549152,-86.0414098,4
37,Albertville,AL,34.2675937,-86.2088669,3
38,Tuscaloosa,AL,33.2095614,-87.5675258,24
39,Vincent,AL,33.386576500000004,-86.41264521728704,2
40,Altoona,AL,34.031471,-86.32144390654034,3
41,Huntsville Alabama,AL,34.729847,-86.5859011,1
42,Bessemer,AL,33.4017766,-86.954437,6
43,Citronelle,AL,31.0937841,-88.234284,5
44,Silas,AL,31.7654349,-88.3291841,1
45,Decatur,AL,34.6060203,-86.9838165,10
46,Columbia,AL,31.2928122,-85.1115416,3
47,Billingsley,AL,32.659575,-86.717761,1
48,robertsdale,AL,30.5552959,-87.7109526,1
49,Baileyton,AL,34.2623179,-86.6127712,1
50,Moundville,AL,32.9976242,-87.6300075,6
51,Athens,AL,34.8045487,-86.9711698,11
52,Fort Morgan,AL,30.2281878,-88.0229106,6
53,Daphne,AL,30.6035255,-87.9036047,11
54,Satsuma,AL,30.853241,-88.0561106,3
55,Madison,AL,34.7736807,-86.5675095,34
56,Spanish Fort,AL,30.6754503,-87.9040269,6
57,Axis,AL,30.9299052,-88.0272209,1
58,Deatsville,AL,32.6081874,-86.3958072,3
59,Oneonta,AL,33.9471315,-86.4714926,5
60,Enterprise,AL,31.3151708,-85.8552161,10
61,Trussville,AL,33.686992000000004,-86.53493287907703,6
62,Pike rd,AL,32.272931,-86.15018999518217,1
63,Lincoln,AL,33.6131588,-86.1183061,3
64,Akron,AL,32.8765165,-87.7425105,1
65,Phenix City,AL,32.4709761,-85.0007653,11
66,Hanceville,AL,34.0623275,-86.7627004,5
67,Boaz,AL,34.2006503,-86.1663655,7
68,Prattville,AL,32.4640245,-86.4596966,5
69,Warrior,AL,33.8401255,-86.81310019555607,5
70,Oxford,AL,33.585888,-86.00350972096774,6
71,Eastaboga,AL,33.6059367,-86.0213587,3
72,Chelsea,AL,33.367136,-86.63772772888282,6
73,Ross Bridge,AL,33.3944355,-86.8866224,1
74,Hueytown,AL,33.4512197,-86.9966606,4
75,Southside,AL,33.895979,-86.02962497644447,3
76,Irvington,AL,37.5322543,-121.9538481,7
77,Littleville,AL,34.5906483,-87.6769745,2
78,Saraland/Mobile,AL,30.820742,-88.0705556,1
79,Elkmont,AL,34.9289743,-86.9738959,3
80,Jacksonville,AL,33.8137163,-85.7613476,8
81,Rock Ledge,AL,32.388796,-86.183011,1
82,Coosada,AL,32.4979127,-86.3313602,1
83,Woodstock,AL,33.196984,-87.12539090389035,1
84,Gurley,AL,34.7017558,-86.3758201,4
85,Melbourne,AL,32.3361751,-86.1586014,1
86,Fowl River,AL,30.43540605,-88.1339706587429,1
87,Morgan City,AL,34.4720365,-86.5697136,1
88,Elberta,AL,30.4144143,-87.5981531,3
89,Brierfield,AL,33.0390099,-86.908879,1
90,Brantley,AL,31.5823832,-86.2571786,2
91,Florence,AL,34.79981,-87.677251,19
92,Maplesville,AL,32.7884608,-86.8716549,1
93,Clanton,AL,32.8387371,-86.6294262,4
94,Samson,AL,31.1108931,-86.0476302,1
95,Coker,AL,33.2459512,-87.6877882,1
96,Homewood,AL,33.4717732,-86.8008228,5
97,Clay,AL,33.2423393,-85.819651,1
98,Grants,AL,33.5078827,-86.6497085,1
99,Hazel green,AL,34.925627500000004,-86.5667604295989,1
100,Delta,AL,33.4401108,-85.690515,1
101,Dauphin Island,AL,30.2542022,-88.1124817,7
102,McKenzie,AL,31.542384,-86.71497,2
103,Rainbow,AL,34.7525907,-86.7363869,1
104,Somerville,AL,34.4731491,-86.798612,3
105,Muscadine,AL,33.7345495,-85.3860654,2
106,Ranburne,AL,33.5228885,-85.3446728,3
107,Toney,AL,34.8981432,-86.7336098,7
108,Helena,AL,33.2937354,-86.93437519805573,8
109,Ashville,AL,33.8369216,-86.2549799,4
110,Brookwood,AL,33.2556719,-87.3208336,2
111,Owens Cross Roads,AL,34.5881461,-86.4588768,1
112,Vance,AL,33.164653,-87.24670630331767,3
113,Trinity,AL,34.5987865,-87.05179736445116,1
114,Union Springs,AL,32.144316,-85.7149495,1
115,Owens Cross Rds,AL,34.5881461,-86.4588768,1
116,Theodore,AL,30.547295,-88.18020367595204,5
117,Pelham,AL,33.285669,-86.8099884,3
118,Dawson,AL,34.303981,-85.9260828,1
119,Hokes Bluff,AL,33.9981546,-85.8663574,2
120,Lanett,AL,32.8687391,-85.1904971,4
121,Alabaster,AL,33.2442813,-86.8163773,10
122,Dora,AL,33.7286935,-87.0904188,4
123,Gordo,AL,33.3201178,-87.9027962,3
124,Vernon,AL,33.7570541,-88.1089185,1
125,Hazel Green,AL,34.925627500000004,-86.5667604295989,4
126,Hamilton,AL,34.1423235,-87.9886438,6
127,Auburn,AL,32.6098566,-85.4807825,14
128,Newton,AL,31.3351716,-85.6052133,2
129,Jasper,AL,33.8312185,-87.2775053,7
130,Grant,AL,34.5286985,-86.2533165,3
131,Lapine,AL,31.9657055,-86.2844093,1
132,Sand Rock,AL,34.234759,-85.76303902911837,1
133,Vestavia,AL,33.4487989,-86.7879492,2
134,Wetumpka,AL,32.5437448,-86.2119127,5
135,Summerdale,AL,30.4876954,-87.6997094,1
136,Clio,AL,31.7087753,-85.6104972,1
137,New Brockton,AL,31.3857239,-85.9293861,1
138,Ozark,AL,31.4584764,-85.6405865,4
139,Phil Campbell,AL,34.3516416,-87.7053803,1
140,Odenville,AL,33.6773237,-86.3966481,1
141,Atmore,AL,31.0237921,-87.4938708,3
142,Chunchula,AL,30.9218505,-88.2005598,1
143,Tanner,AL,34.7314787,-86.9705632,1
144,Lisman,AL,32.1687554,-88.2825251,2
145,Clements,AL,33.88867395,-86.40525950486963,1
146,West Mobile,AL,30.6293585,-88.1847248,1
147,Montevallo,AL,33.1006746,-86.8641558,4
148,Phenix city,AL,32.4709761,-85.0007653,3
149,Harpersville,AL,33.3439995,-86.4380357,1
150,Hollywood,AL,34.72425,-85.9724787,1
151,Red Hill,AL,34.3248138,-85.8763595,1
152,Vandiver,AL,33.4706617,-86.5133163,1
153,Centre,AL,34.1520406,-85.6788531,2
154,Wicksburg,AL,31.2082304,-85.622434,1
155,Stapleton,AL,30.742689,-87.7933252,1
156,Crane Hill,AL,34.093991,-87.0630624,1
157,Valley,AL,32.8187406,-85.1793852,7
158,Waverly,AL,32.732876000000005,-85.57647322024454,1
159,Thorsby,AL,32.9156796,-86.7158178,1
160,Jones,AL,32.5840214,-86.8974878,1
161,Tuscumbia,AL,34.7312005,-87.70253,3
162,Nanafalia,AL,32.1129257,-87.9880691,1
163,Woodland,AL,33.3742812,-85.399673,1
164,Kentucky,AL,32.385638,-86.173611,1
165,Gulf shores,AL,30.2711224,-87.6893826,1
166,Hartford,AL,31.1019671,-85.6977651,1
167,Huntsville (Owens Cross Roads),AL,34.659505,-86.4857288,1
168,Leeds,AL,33.5439212,-86.5427551,2
169,Salem,AL,32.5968028,-85.2385527,2
170,Florala,AL,31.00518,-86.3280018,1
171,Attalla,AL,34.0217639,-86.0885851,3
172,Rockford,AL,32.8895681,-86.2196936,1
173,Greendale,AL,31.674789,-106.222463,1
174,Andalusia,AL,31.3080607,-86.482424,3
175,Millry,AL,31.6340496,-88.3133487,1
176,Cherokee,AL,34.1142554,-85.6004514,2
177,Brundidge,AL,31.7201615,-85.8160567,1
178,Luverne,AL,31.7165455,-86.2638492,1
179,Cropwell,AL,33.5523269,-86.2691438,2
180,East Limestone,AL,34.7809229,-86.8327797,1
181,Glencoe,AL,33.9522585,-85.92537820802963,2
182,Geraldine,AL,34.3514798,-86.0008078,1
183,Scottsboro,AL,34.6731323,-86.0338765,3
184,Hackleburg,AL,34.2776095,-87.8284254,1
185,mobile,AL,30.6867339,-88.0848929,1
186,Grand Bay,AL,30.4722155,-88.34653955188679,5
187,Belgreen,AL,34.4775044,-87.8647858,1
188,Cottonwood,AL,31.0520632,-85.3027654,1
189,Headland,AL,31.351284,-85.3421559,3
190,Muscle Shoals,AL,34.7436791,-87.6532615,6
191,Wellington,AL,33.8225999,-85.8927457,2
192,Russellville,AL,34.5068228,-87.7290264,1
193,Mountain Brook,AL,33.5019459,-86.7556834,3
194,Lacy Springs,AL,38.8218289,-104.7524539,1
195,Cusseta & Fairfax,AL,32.798704,-85.191514,1
196,Talladega,AL,33.3967079,-86.1597137,3
197,Corner,AL,33.800381,-86.9422201,1
198,Hurtsboro,AL,32.2418146,-85.4163327,1
199,Wadley,AL,33.1215089,-85.5663432,1
200,Silverhill,AL,30.5454715,-87.7516559,2
201,Parrish Alabama,AL,33.7334096,-87.281325,1
202,Holly Pond,AL,34.1742634,-86.616382,2
203,Hayden,AL,33.8926003,-86.757773,1
204,McCalla,AL,33.3062319,-87.0241656,2
205,Remlap,AL,33.8167666,-86.6008222,1
206,Blountsville,AL,34.0814863,-86.5911027,1
207,Heflin,AL,33.6489948,-85.5874584,4
208,Sheffield,AL,34.7650888,-87.6986407,2
209,Woodville,AL,34.6278654,-86.2744286,3
210,Wedowee,AL,33.3090047,-85.484675,3
211,Pell City,AL,33.5862149,-86.2860888,5
212,Foley/Elberta,AL,30.407019,-87.591506,1
213,Northport,AL,33.2292976,-87.5771286,2
214,Kellyton,AL,32.9798441,-86.033578,1
215,Brookside,AL,33.6378825,-86.9166612,1
216,Sylacauga,AL,33.1731716,-86.2516406,4
217,Brewton,AL,31.1051779,-87.0721918,1
218,Nixburg,AL,32.8279036,-86.1110787,1
219,Boldo,AL,33.853995,-87.1827818,1
220,New Hope,AL,34.5370339,-86.3944308,2
221,Flomaton,AL,31.000182,-87.2608071,1
222,Selma,AL,32.4078632,-87.0207473,3
223,Opp,AL,31.2821209,-86.255839,6
224,Greenville,AL,31.8295972,-86.6177517,1
225,Irondale,AL,33.5381601,-86.7072102,1
226,Cedar Bluff,AL,34.2200942,-85.6077402,1
227,Troy,AL,31.8087678,-85.969951,2
228,Mobile Bay,AL,30.45601565,-88.01110175153849,1
229,Ohatchee,AL,33.7834324,-86.0024703,2
230,Bay Minette,AL,30.8829628,-87.7730474,2
231,Shelby,AL,33.2503347,-86.6639746,2
232,Adamsville,AL,33.6009389,-86.9561059,3
233,Valley Grande,AL,32.5090233,-86.98749,1
234,Eufaula,AL,31.8912717,-85.1454876,3
235,Millbrook,AL,32.4798575,-86.3619163,3
236,Ardmore,AL,34.978857500000004,-86.88322024868518,3
237,Arley,AL,34.0800419,-87.2125687,2
238,Double Springs,AL,34.1464916,-87.4022386,1
239,Athens (Hwy 72 W),AL,34.7933652,-86.99625569016031,1
240,Maylene,AL,33.2034492,-86.861656,2
241,Baldwin County,AL,30.5677527,-87.7324392,1
242,Perdue Hill,AL,31.5140509,-87.4933234,1
243,Monrovia,AL,34.786479,-86.7138863,1
244,Athens-East Limestone,AL,34.7962428,-86.9679923,1
245,Seminole,AL,30.5151954,-87.4738692,1
246,Killen,AL,34.8628637,-87.5375253,1
247,Frankfort,AL,34.5634272,-87.8422568,1
248,Saraland,AL,30.820742,-88.0705556,3
249,Pine Level,AL,31.47572,-86.1863404,1
250,Smiths Station,AL,32.5401394,-85.0985474,1
251,Franklin County,AL,34.440962,-87.8339064,1
252,Bear Creek,AL,34.3014464,-87.8045552,2
253,Rehobeth,AL,31.1230721,-85.4544125,1
254,North Mobile County,AL,30.761577,-88.0913894,1
255,Sylvania,AL,34.5623077,-85.8124715,1
256,"Phenix City & Columbus,Ga",AL,32.4641028,-84.99895109206386,1
257,Fairview,AL,34.2553741,-86.6880519,1
258,Eldridge,AL,33.9228835,-87.6172389,1
259,Leighton,AL,34.700923,-87.5289152,1
260,Petersville,AL,34.8553645,-87.691695,1
261,Addison,AL,34.2023243,-87.1814012,1
262,Borden Springs,AL,33.9298234,-85.470235,1
263,Dutton,AL,34.6109183,-85.91692,1
264,Livingston,AL,32.5841595,-88.1872828,1
265,Haleyville,AL,34.226488,-87.6214133,1
266,Flat Rock,AL,33.2820774,-85.6397676,1
267,Jackson,AL,34.7692447,-85.9867941,1
268,Florala (??),AL,31.00518,-86.3280018,1
269,Elmore,AL,32.5801231,-86.125195,2
270,Springville,AL,33.7750997,-86.4716512,1
271,Bremen,AL,33.9945465,-86.9700027,1
272,Pinson,AL,33.706205,-86.67007895992774,2
273,Sandrock,AL,34.280984,-86.308853,1
274,Moulton,AL,34.4817816,-87.2919449,1
275,Gulf  Shores,AL,30.2711224,-87.6893826,1
276,Lawley,AL,33.5012164,-86.4474816,1
277,Cusseta,AL,32.785953,-85.30607274033625,1
278,Wagarville,AL,31.4396104,-88.0297248,3
279,Grove Hill,AL,31.3882223,-87.6547143,1
280,Mount Olive,AL,33.681158999999994,-86.88022409259258,1
281,Dadeville,AL,32.831238,-85.7635692,1
282,Hoover (Bluff Park),AL,33.41158365,-86.85564043391446,1
283,Smiths,AL,32.5401394,-85.0985474,1
284,Gaylesville,AL,34.268426,-85.5569057,2
285,Chalybeate Springs,AL,34.565093,-87.2266849,1
286,Attalla/Gadsden,AL,33.9990053,-86.09190435,1
287,Hoover/Bluff Park,AL,33.41158365,-86.85564043391446,1
288,Piedmont,AL,37.8243715,-122.231635,1
289,Rock Creek,AL,33.4767065,-87.08040338438974,1
290,Hayneville,AL,32.1840315,-86.5802533,1
291,Wind Creek State Park,AL,32.861609,-85.93627975072891,1
292,Elba,AL,31.4146108,-86.0677243,2
293,Crossville,AL,34.2875925,-85.99414,1
294,Hillsboro,AL,34.639258,-87.1916834,1
295,"
Moundville",AL,32.9976242,-87.6300075,1
296,Union Grove,AL,34.402263500000004,-86.44629485301036,3
297,Stockton,AL,30.9937926,-87.8580499,1
298,Marion County,AL,34.1128132,-87.8544031,1
299,Skipperville,AL,31.5576671,-85.5454941,1
300,Sipsey,AL,33.8248272,-87.0861125,1
301,Alabama,AL,32.6671673,-85.3526444,2
302,Kimberly,AL,33.7734352,-86.8138832,1
303,Fort. Deposit,AL,31.9845929,-86.5785856,1
304,Lynn,AL,34.0470483,-87.54974,1
305,Weogufka,AL,33.0165092,-86.3121969,2
306,Valhermoso Springs,AL,34.5012035,-86.6858295,1
307,Arab,AL,34.3181497,-86.4958219,2
308,Cheaha Mountain,AL,33.4856238,-85.808781,1
309,Southside (Gadsden),AL,34.0039353,-86.0055082,1
310,Demopolis,AL,32.5178284,-87.8368201,1
311,Rainsville,AL,34.4942536,-85.8477494,1
312,St. Florian,AL,34.863213,-87.60843952250522,1
313,Columbus City,AL,34.460644,-86.233315,1
314,Moody,AL,33.5909365,-86.4908168,1
315,Leesburg,AL,34.1798177,-85.7613555,1
316,Indian Springs,AL,34.82474965,-87.59730047379823,1
317,Aliceville,AL,33.1293544,-88.1517162,1
318,Collinsville,AL,34.2648308,-85.8608643,2
319,Montgomery (near),AL,38.6522389,-90.1916524,1
320,Mountainboro,AL,34.1470397,-86.1305312,1
321,Carbon Hill,AL,33.8917742,-87.5261236,1
322,Tuskegee,AL,32.4240286,-85.6916195,1
323,Lake Martin,AL,32.8039252,-85.89394211824921,1
324,Verbena,AL,32.7498505,-86.5113668,1
325,Colbert Heights,AL,34.6609244,-87.6944746,1
326,Bridgeport,AL,34.9475808,-85.7144155,1
327,Fort Rucker,AL,31.45140705,-85.78393468276528,1
328,Monroeville,AL,31.5279399,-87.3247077,1
329,Coldwater,AL,33.5862158,-85.9183001,1
330,Fredonia,AL,32.9898462,-85.2885564,1
331,Slocomb,AL,31.1082335,-85.594378,1
332,Telford,AL,31.232819,-85.493214,1
333,Locust Fork,AL,33.9075992,-86.6152685,1
334,New Market,AL,34.895672000000005,-86.41498977939412,1
335,Mentone,AL,34.5795282,-85.5905204,1
336,Florala ?,AL,31.00518,-86.3280018,1
337,Bradford,AL,33.7520454,-86.7038799,1
338,Vicksburg,AL,34.616692,-86.547969,2
339,Tarrant City,AL,33.5834373,-86.7727681,1
340,Marion,AL,34.1128132,-87.8544031,1
341,Waterloo,AL,34.9181425,-88.064203,1
342,Town Creek,AL,34.6812012,-87.4061342,1
343,City,State,40.7169461,-73.9566296,1
344,Fairbanks,AK,64.837845,-147.716675,80
345,Anchorage,AK,61.2163129,-149.894852,150
346,Palmer,AK,61.5995703,-149.11109,22
347,Kasilof,AK,60.330143,-151.2366311908321,3
348,"Eagle River, Alaska",AK,61.3154099,-149.561315,1
349,North Pole,AK,64.750997,-147.349319,25
350,Willow,AK,61.7472222,-150.0375,6
351,Soldotna,AK,60.4847228,-151.065349,9
352,Chugiak,AK,61.3736751,-149.4949094405849,7
353,Lahaina,AK,20.8738769,-156.677678,1
354,Esther,AK,60.826246100000006,-148.0909659014548,1
355,Ketchikan,AK,55.3430696,-131.6466819,11
356,Anchorage Ak,AK,61.2163129,-149.894852,1
357,Bethel,AK,60.7922222,-161.755833,11
358,Seward,AK,60.104202,-149.442611,9
359,Juneau,AK,58.3019496,-134.419734,18
360,Eagle River,AK,61.3154099,-149.561315,18
361,Point Mackenzie,AK,61.339032,-150.09673146442356,1
362,Wasilla,AK,61.5824216,-149.442563,45
363,Knik,AK,61.4577778,-149.7288889,2
364,Kenai,AK,60.5544444,-151.258333,11
365,Deadhorse,AK,70.1999496,-148.461816,1
366,Sutton,AK,61.7113889,-148.894166,2
367,Homer,AK,59.6440876,-151.5401477,11
368,Valdez,AK,61.1299396,-146.349363,4
369,Port Fidalgo,AK,60.7955556,-146.4441667,1
370,Kodiak,AK,57.79,-152.4072222,6
371,Ninilchik,AK,60.0506444,-151.6661531,4
372,Dutch Harbor,AK,53.8867533,-166.5418001,1
373,Nenana,AK,64.5639068,-149.093474,4
374,Mile 35,AK,36.620639,-101.402832,1
375,Tanana,AK,65.1719444,-152.078888,1
376,Nikiski,AK,60.721058,-151.24620611281358,5
377,Sand Point,AK,55.3409245,-160.497568,1
378,Delta Junction,AK,64.0373478,-145.732157,4
379,Anchor Point,AK,59.76826,-151.67755197505488,3
380,Big Lake,AK,61.53416735,-149.93947126173936,4
381,Coffman Cove,AK,56.0139933,-132.827889,1
382,Pelican,AK,57.9608333,-136.2275,1
383,Kotzebue,AK,66.8982057,-162.5977621,2
384,Dillingham,AK,59.0397222,-158.4575,1
385,Nome,AK,64.4989922,-165.39879944316317,1
386,Butte,AK,61.555605,-149.00510072157397,2
387,Sitka,AK,57.0524973,-135.337612,3
388,Point hope,AK,68.3498679,-166.752609,1
389,Denali State Park,AK,62.75367305,-149.99974151737248,1
390,Irving,AK,64.8601386,-147.84624281650142,1
391,Clam Gulch,AK,60.207989,-151.3901620151362,1
392,Ward Cove,AK,55.4096986,-131.7242719,1
393,Kuparuk,AK,70.3616454,-148.9217267,1
394,Sterling,AK,60.536235,-150.85647760696855,2
395,Angoon,AK,57.5033333,-134.583888,1
396,Tanacross,AK,63.3505295,-143.4807394934291,1
397,Savoonga,AK,63.6814425,-170.46987901063326,3
398,Metlakatla,AK,55.119358000000005,-131.57474171012845,2
399,Haines,AK,59.0831232,-135.3430573,1
400,Hooper Bay,AK,61.5288714,-166.1071932,1
401,Elk,AK,60.7141667,-147.3616667,1
402,Prince William Sound,AK,60.615,-147.1680556,2
403,Fort Greely,AK,63.857347,-145.85637440897182,2
404,Kaktovik,AK,70.1263327,-143.613402,1
405,Healy,AK,63.8704918,-148.995848,1
406,Venetie,AK,67.02505500000001,-146.41715278917843,1
407,Alaska,AK,61.1796582,-149.971867,2
408,Nunapitchuk,AK,60.8969444,-162.4594444,1
409,Kenai Peninsula,AK,60.0968272,-151.788033,1
410,Slana,AK,62.62813245,-143.50539109805024,1
411,White Mountain,AK,64.6813889,-163.4055556,1
412,Glennallen,AK,62.1371485,-145.82205347328326,3
413,Ester,AK,64.8586885,-148.09005916666666,1
414,College Fjord,AK,61.1885495,-147.8088252,1
415,Wrangell,AK,56.2045673,-132.0432552,3
416,St. George Island,AK,56.57365705,-169.58346009910957,2
417,Council,AK,64.895,-163.6763889,1
418,Iliamna,AK,59.7532274,-154.8230265,1
419,Yakutat,AK,59.5727345,-139.57831243878087,1
420,Two Rivers,AK,64.89556150000001,-147.08052056252663,1
421,Inside Passage,AK,47.4777641,-121.921819,1
422,Talkeetna,AK,62.267644,-150.02952875707462,1
423,Wainwright,AK,70.6369444,-160.038333,1
424,Cordova,AK,60.5439444,-145.75891,3
425,Turnagain Pass,AK,60.7973866,-149.197828,2
426,Newhalen,AK,59.72,-154.8972222,1
427,Petersburg,AK,56.8133806,-132.9572288,1
428,Elmendorf AFB,AK,61.253281650000005,-149.80817355784652,2
429,Copper Center,AK,61.9817167,-145.34774426791748,1
430,Anchorage/Girdwood,AK,60.9626256,-149.1366531,1
431,Auke Bay,AK,58.3675,-134.6777778,2
432,Alaska (remote),AK,61.7212061,-150.1929712,1
433,Adak,AK,51.8666057,-176.64575,2
434,Mountain Village,AK,62.0855556,-163.7294444,1
435,Birchwood,AK,61.4052778,-149.4688889,1
436,Prince of Wales Island,AK,55.523719,-132.8453042243044,1
437,Cold Bay,AK,55.199447500000005,-162.74047820061134,1
438,Gustavus,AK,58.4128377,-135.7375654,1
439,Douglas Island,AK,58.26853,-134.51419875,1
440,Teller,AK,65.2632484,-166.3640144,2
441,Girdwood,AK,60.9632459,-149.1336969,1
442,Ft. Richardson,AK,61.23490275,-149.5969222543053,1
443,Point Barrow,AK,71.3865172,-156.4741383,1
444,Kodiak Island,AK,57.5433765,-153.3574124,1
445,Ft. Yukon,AK,66.5647222,-145.273888,2
446,Nulato,AK,64.7194444,-158.1030556,1
447,Gula,AK,52.0527778,178.1402778,1
448,Arctic,AK,61.5272094,-149.5247867,1
449,?????,AK,61.1796582,-149.971867,1
450,Bering Sea,AK,53.8726881,-166.5234562,1
451,Eklutna,AK,61.4580919,-149.3617169,1
452,City,State,40.7169461,-73.9566296,1
453,Tucson,AZ,32.2228765,-110.9748477,446
454,Gilbert,AZ,33.3527632,-111.7890373,147
455,Buckeye,AZ,33.3703197,-112.583776,58
456,Bullhead City,AZ,35.1477774,-114.568298,32
457,Snowflake,AZ,34.5114704,-110.079608,4
458,Huachuca City,AZ,31.6278703,-110.3339678,4
459,Sun city,AZ,33.6169035,-112.28011795781,1
460,Payson,AZ,34.2406479,-111.3230261,15
461,Casa Grande,AZ,32.8795022,-111.757352,42
462,Sun City West,AZ,33.6657535,-112.35505216920794,10
463,Scottsdale,AZ,33.4942189,-111.9260184,176
464,Peoria,AZ,33.5806115,-112.237294,78
465,Show Low,AZ,34.2542084,-110.029832,31
466,Safford,AZ,32.8339546,-109.70758,19
467,Sierra vista,AZ,31.5545973,-110.2997756,2
468,Kingman,AZ,35.189443,-114.0530065,51
469,Douglas,AZ,31.3471741,-109.5383567,7
470,Tonto Basin,AZ,33.840994499999994,-111.30031965582724,2
471,Oro Valley,AZ,32.4000525,-110.9553176,13
472,Phoenix,AZ,33.4484367,-112.074141,751
473,Cottonwood,AZ,34.739489,-112.009793,32
474,Avondale,AZ,33.4355977,-112.349602,28
475,tempe,AZ,33.4255117,-111.9400164,2
476,Tempe,AZ,33.4255117,-111.9400164,116
477,Glendale,AZ,33.5386858,-112.185994,118
478,Prescott,AZ,34.5399962,-112.468761,49
479,Laveen,AZ,33.3618814,-112.1533861,12
480,Surprise,AZ,33.6292271,-112.3680189,83
481,El Mirage,AZ,33.6130338,-112.324486,11
482,Mesa,AZ,33.4151005,-111.8314552,238
483,Sierra Vista,AZ,31.5545973,-110.2997756,28
484,Maricopa,AZ,33.34883,-112.49123,71
485,Nogales,AZ,31.3402134,-110.9360818,8
486,ajo,AZ,32.3933515,-112.90272302970295,1
487,South Phoenix,AZ,33.4064556,-112.0729432,4
488,Arizona City,AZ,32.748400000000004,-111.67590514853674,12
489,Phoenix/ ahwatukee,AZ,33.3173294,-111.973542640063,1
490,Dateland,AZ,32.7964368,-113.5411489,7
491,Fountain Hills,AZ,33.6117105,-111.717361,17
492,Queen Creek,AZ,33.2483858,-111.634158,46
493,Sedona,AZ,34.8629426,-111.8137097,87
494,Big lake,AZ,36.47887615,-109.182394224991,1
495,Big lake az,AZ,36.47887615,-109.182394224991,1
496,Williamson Valley,AZ,34.7958501,-112.7298833,2
497,Prescott Valley,AZ,34.6100243,-112.315721,54
498,Benson,AZ,31.9678611,-110.2945174,15
499,Hollywood,AZ,32.8295101,-109.6834127,1
500,Corona De Tucson,AZ,31.959317,-110.7685377,1
501,Apache Junction,AZ,33.4150485,-111.549577,47
502,Lake Havasu City,AZ,34.4838502,-114.3224495,81
503,Hereford,AZ,31.4384325,-110.0978554,2
504,Goodyear,AZ,33.4073522,-112.3934809,44
505,Star Valley,AZ,34.2540333,-111.2613523,34
506,QUEEN CREEK,AZ,33.2483858,-111.634158,1
507,Gila Bend,AZ,32.9478267,-112.7168239,28
508,Yuma,AZ,32.665135,-114.47603157249804,72
509,Gisela,AZ,34.1017053,-111.2798554,2
510,New River,AZ,33.887139250000004,-112.08706829579332,11
511,Cornville,AZ,34.7395165,-111.9058275625,4
512,Anthem,AZ,33.8582445,-112.11363775626154,19
513,Globe,AZ,33.3959623,-110.787134,17
514,Concho,AZ,34.4753132,-109.6059405,4
515,Morenci,AZ,33.0512895,-109.32598,1
516,Pinetop,AZ,34.1258775,-109.9376056,3
517,Chandler,AZ,33.3061605,-111.84125,147
518,Flagstaff,AZ,35.1987522,-111.651822,53
519,Chandler/Maricopa County,AZ,33.3061605,-111.84125,1
520,Wellton,AZ,32.6728314,-114.146889,8
521,Sow Low,AZ,34.26500865,-110.01040706514166,1
522,Litchfield park,AZ,33.4933796,-112.3581244,1
523,Tonopah,AZ,33.4889075,-112.93028188114938,10
524,Sahuarita,AZ,31.9575305,-110.9556645,17
525,Gold Canyon,AZ,33.3710715,-111.42618498017517,22
526,Heber,AZ,34.431205,-110.593925,6
527,Stoneman Lake,AZ,34.7814099,-111.5126495,1
528,Pine,AZ,34.3842741,-111.4555672,2
529,Williams,AZ,35.2503394,-112.1869481,4
530,Chino Valley,AZ,34.7575227,-112.45378,10
531,Cordes Lakes,AZ,34.308957500000005,-112.1086067691474,2
532,Willcox,AZ,32.2529138,-109.8315759,4
533,Yucca,AZ,34.8726671,-114.1498589,2
534,Wikiup,AZ,35.23524265,-111.5785967,2
535,Picacho,AZ,32.716176,-111.4953971,1
536,Joseph City,AZ,34.9558585,-110.3339982,1
537,Cave Creek,AZ,33.8333333,-111.950833,17
538,Strawberry,AZ,34.4068363,-111.4952229,5
539,Tramonto,AZ,33.6124885,-112.21852110524928,1
540,Coolidge,AZ,32.977839,-111.517624,11
541,MESA,AZ,33.4151005,-111.8314552,1
542,PHOENIX,AZ,33.4484367,-112.074141,1
543,Florence,AZ,33.0314508,-111.3873431,10
544,Salome,AZ,33.778407,-113.60405480156254,6
545,Quartzite,AZ,33.4768919,-110.7513663,12
546,Pearce,AZ,31.9050865,-109.8206232,3
547,Green Valley,AZ,31.8484548,-111.02659450731726,26
548,BULLHEAD CITY,AZ,35.1477774,-114.568298,1
549,San Tan Valley,AZ,33.1775233,-111.547892,44
550,Highway 87,AZ,34.529226754305654,-112.46338542771376,1
551,Clifton,AZ,33.0508966,-109.2961826,1
552,North Phoenix,AZ,32.2581142,-109.8356832,9
553,Scottsdale/Fountain Hills,AZ,33.6049259,-111.76301229363293,1
554,Topock,AZ,34.7186016,-114.483911,1
555,Lakeside,AZ,34.154488,-109.9734405,8
556,Bagdad,AZ,34.57774,-113.17428445757577,3
557,Corona de Tucson,AZ,31.959317,-110.7685377,1
558,Wikieup,AZ,34.7033462,-113.6113242,3
559,Marana,AZ,32.4446988,-111.215709,21
560,Wenden,AZ,33.8335125,-113.5458310085752,2
561,Litchfield Park,AZ,33.4933796,-112.358124,18
562,Waddell,AZ,33.6114269,-112.4271084,6
563,Chandler/Gilbert,AZ,33.234967850000004,-111.72187277351264,2
564,Eagle Eye Road,AZ,33.9573251,-113.1764903,1
565,Sun City,AZ,33.6169035,-112.28011795781,9
566,Page,AZ,36.9148305,-111.457294,6
567,Quartzsite,AZ,33.6669903,-114.21681,11
568,North Peoria,AZ,33.9061035,-112.272279,1
569,Sonoita,AZ,31.6723455,-110.66195553057366,2
570,Four Peaks Wilderness,AZ,33.6360935,-111.3254080988602,1
571,Bullhead city,AZ,35.1477774,-114.568298,1
572,Paradise Valley,AZ,33.5428006,-111.9556001,14
573,Sun Lakes,AZ,33.2178895,-111.86717508488503,4
574,Camp Verde,AZ,34.5636358,-111.854317,13
575,Holbrook,AZ,34.9037063,-110.159316,7
576,Eloy,AZ,32.7551703,-111.553493,7
577,Grand Canyon Village,AZ,36.045879,-112.15401866549708,3
578,Somerton,AZ,32.5964404,-114.709677,1
579,Rimrock,AZ,34.6450394,-111.7848411,2
580,Many Farms,AZ,36.350497,-109.6262481782519,1
581,Whiteriver,AZ,33.846063,-109.95762319342022,3
582,Bisbee,AZ,31.4481547,-109.928408,2
583,Valle,AZ,35.6156245,-112.072876,1
584,Roosevelt lake,AZ,33.704689349999995,-111.1661297427626,2
585,Quijota,AZ,32.1841401,-110.8654781,1
586,Red Rock,AZ,36.6044451,-109.060653,3
587,phoenix,AZ,33.4484367,-112.074141,1
588,Tuscan,AZ,32.59801775,-114.57095171276924,1
589,East mesa,AZ,36.6055562,-109.2659361,1
590,Bouse,AZ,33.9325235,-114.0057748,20
591,mohave valley,AZ,35.0527235,-114.57165298708593,1
592,Eagar,AZ,34.1111581,-109.291475,2
593,Lake Havasu,AZ,34.4105067,-114.29087205807808,13
594,Phoenix/Tempe,AZ,33.409275949999994,-111.96135121624582,2
595,scottsdale,AZ,33.4942189,-111.926018,1
596,Tolleson,AZ,33.4500497,-112.259309,1
597,Rio Rico,AZ,31.4714828,-110.9764769,7
598,Fort Mohave,AZ,34.912470299999995,-114.60525534412145,7
599,Red Mountain,AZ,34.2386265,-114.1521693,1
600,Apache junction,AZ,33.4150485,-111.549577,1
601,Leupp,AZ,35.2982231,-111.006193,3
602,Catalina,AZ,32.482131,-110.90019740489195,1
603,Saguaro Lake,AZ,33.56731455,-111.52356928684038,1
604,Bylas,AZ,33.1386688,-110.125087,1
605,Pomerene,AZ,31.999527,-110.286183,1
606,Oak Creek/Sedona,AZ,34.8622974,-111.7617634,1
607,Elfrida,AZ,31.6853714,-109.6870138,1
608,Patagonia,AZ,31.5402016,-110.753927,2
609,North Rim,AZ,36.2104375,-112.0610748,1
610,Lake Roosevelt,AZ,33.704689349999995,-111.1661297427626,1
611,Arlington,AZ,33.3355685,-112.77438211284098,1
612,Superior,AZ,33.293945,-111.09623,9
613,Lake Pleasant,AZ,33.90415375,-112.28987078961418,1
614,Ajo,AZ,32.3933515,-112.90272302970295,9
615,Cortaro,AZ,32.3470902,-111.0727381,1
616,Showlow,AZ,34.2491663,-110.044115,1
617,Parker,AZ,34.1498408,-114.28896,12
618,J6,AZ,32.54108225,-111.12036381614176,1
619,Polacca,AZ,35.8366716,-110.381519,2
620,East Phoenix/Tempe,AZ,33.4377046,-111.9616747,1
621,Ganado,AZ,35.6992764,-109.54982194820788,4
622,Marble Canyon,AZ,36.8155432,-111.637661,1
623,Clarkdale,AZ,34.7711319,-112.0579367,3
624,Tombstone,AZ,31.714229,-110.0652028,4
625,Southern,AZ,33.39378485,-111.92344946244746,1
626,Thatcher,AZ,32.8492323,-109.759247,2
627,Dragoon,AZ,32.0281367,-110.0386795,2
628,Village of Oak Creek,AZ,34.7794605,-111.7624459,3
629,Duncan,AZ,32.7151776,-109.1004486,4
630,Sonora Desert,AZ,32.2598642,-112.9262583,1
631,Dewey,AZ,34.5275895,-112.2420702,5
632,South Lake Havasu City,AZ,34.5128815,-114.3401978,1
633,Sells,AZ,31.9159161,-111.878044,1
634,Miami,AZ,33.3994776,-110.87095,3
635,San tan valley,AZ,33.1775233,-111.547892,1
636,Winslow,AZ,35.0241984,-110.6973463,9
637,Desert Hills,AZ,34.5546255,-114.37479084599786,1
638,Paulden,AZ,34.879893,-112.47709873575306,4
639,Fortuna,AZ,32.6906033,-114.4530026,1
640,Welton,AZ,32.7403336,-114.4826625,2
641,Luke Air Force Base,AZ,33.5354345,-112.37352271720567,1
642,Buckeye/Litchfield Park,AZ,33.504029,-112.4650498567491,1
643,Kayenta,AZ,36.7150095,-110.24609078813896,5
644,Benson (north of),AZ,31.9687987,-110.2970559,1
645,Sweetwater,AZ,31.9609032,-112.5840348,1
646,The Grand Canyon,AZ,35.2507516,-112.1881193,1
647,Congress,AZ,34.153848499999995,-112.85491907497467,4
648,Rock Point,AZ,36.7170573,-109.624514,1
649,Golden Valley,AZ,35.2216745,-114.21755430809858,14
650,Cochise County,AZ,31.8514532,-109.8181858,1
651,Interstate 8,AZ,32.1192571,-110.8649612,2
652,Grand Canyon,AZ,36.0965604,-112.0984941,6
653,Mohave Valley,AZ,35.0527235,-114.57165298708593,1
654,Wittmann,AZ,33.7733775,-112.52701830095228,8
655,Wickenburg,AZ,33.9680962,-112.730135,16
656,Nelson,AZ,35.5141597,-113.3202086,1
657,Wickieup,AZ,33.6634794,-112.1058229,1
658,Sacaton,AZ,33.086806,-111.75818769110458,5
659,Palm Springs,AZ,33.4047711,-111.5384662,1
660,Estrella (west of Phoenix),AZ,33.3339058,-112.1711443,1
661,Carefree,AZ,33.8222377,-111.9181668,3
662,Tempe/Phoenix,AZ,33.409275949999994,-111.96135121624582,1
663,Jerome,AZ,34.7489107,-112.1137716,3
664,Black Canyon City,AZ,34.0708665,-112.1507149,7
665,York Valley,AZ,34.7866492,-112.4388305,1
666,Scenic,AZ,36.782334,-114.007006,1
667,South Phoenix/Laveen,AZ,33.3743596,-112.1477024,1
668,Wheatfields,AZ,36.2382416,-109.12631,1
669,Tacna,AZ,32.700149,-113.96187400635291,3
670,Spring Valley,AZ,34.350292,-112.15076984118616,3
671,East Mesa,AZ,36.6055562,-109.2659361,4
672,South Scottsdale,AZ,33.6865238,-111.8539113,1
673,Aguila,AZ,33.939258,-113.16563136721928,2
674,Utting,AZ,33.8389157,-113.8868829,1
675,Avra Valley,AZ,32.419857,-111.33811324292452,2
676,Queen creek,AZ,33.2483858,-111.634158,1
677,Ash Fork,AZ,35.216333,-112.49138580381911,1
678,Mesa/Chandler,AZ,33.38486245,-111.8410960187016,1
679,Oracle,AZ,32.6099702,-110.7651843,3
680,Tucson (Catalina Foothills),AZ,32.3147666,-110.8387912,1
681,Southwest desert,AZ,33.6082423,-112.2563191,1
682,Three Points,AZ,32.046336499999995,-111.28519017477304,1
683,Pima,AZ,32.1112624,-111.6546163,3
684,Cane Beds,AZ,36.9463736,-112.8943777,1
685,Vail,AZ,32.0100705,-110.69752810628196,3
686,Ahwatukee,AZ,33.3194186,-112.0312962,4
687,Miami/Globe,AZ,33.4112916,-110.8297638,1
688,Beaver Dam,AZ,36.8997989,-113.9359348,6
689,San Manuel,AZ,32.5997933,-110.6309289,2
690,Avondale/Tolleson,AZ,33.4597123,-112.27101405940957,1
691,Brenda,AZ,33.6796243,-113.9445832,1
692,Maricopa (City of),AZ,33.360581,-112.21743951833471,1
693,Camp Verde (south of),AZ,34.5652839,-111.8614077,1
694,Tumacacori,AZ,31.568702,-111.0523126,4
695,Eleven Mile Corner,AZ,32.8795058,-111.5670685,1
696,Tsaile,AZ,36.3062625,-109.21869655882354,2
697,Jacob Lake,AZ,36.7137341,-112.2160154,1
698,Highway 5,AZ,34.0802684,-112.1529427,1
699,Cordes Junction,AZ,34.3289024,-112.1216956,1
700,Sunset Point,AZ,33.5208737,-112.3623816,1
701,Bullhead,AZ,35.9018937,-114.0572421,3
702,Three-Points,AZ,32.046336499999995,-111.28519017477304,1
703,Rio Verde,AZ,33.7249997,-111.6688291948788,1
704,Prescott/Prescott Valley,AZ,34.6100243,-112.315721,3
705,Estrella Mountain,AZ,33.4817699,-112.3457163241672,1
706,East Mesa/Tempe,AZ,33.3637976,-111.8943343,1
707,Phoenix (Ahwatukee),AZ,33.3173294,-111.973542640063,2
708,Sedona (south of),AZ,33.375320450000004,-111.97268967279072,1
709,Scottsdale (Phoenix),AZ,33.61734835,-111.97904415929489,1
710,North Scottsdale,AZ,33.5195843,-111.927161964679,1
711,Table Top Mountain,AZ,34.8494018,-111.7846547,1
712,Verde Valley,AZ,34.6795242,-111.9314589,1
713,Black Canyon,AZ,34.6592415,-112.0521548,1
714,White River,AZ,33.745707,-110.104466,1
715,Prescott National Forest,AZ,34.64233335,-112.7694405443844,2
716,Sunflower,AZ,33.8642086,-111.4676349,3
717,Wilcox,AZ,32.7411157,-114.4804579,3
718,Peach Springs,AZ,35.5253105,-113.44158285273971,1
719,Mammoth,AZ,32.722568,-110.6406547,1
720,Wilhoit,AZ,34.4045775,-112.60822208803656,2
721,Mesa/Tempe,AZ,33.391909,-111.9706017,1
722,Hackberry,AZ,35.3691614,-113.7271643,1
723,North Yuma,AZ,32.7736266,-114.5024405,1
724,Mayer,AZ,34.426387500000004,-112.23672324270557,3
725,Greenehaven,AZ,36.9911582,-111.5602961,1
726,Grand Canyon (North Rim),AZ,36.1974532,-112.0529243,2
727,Amado,AZ,31.685279,-111.06212842449663,3
728,Gila Bend (west of),AZ,32.9540997,-112.7264386,1
729,Franconia,AZ,34.7394521,-114.2682879,1
730,Vicksburg,AZ,33.7444747,-113.7521564,2
731,Mohawk,AZ,32.7267144,-113.7552022,1
732,Chandler/Casa Grande,AZ,32.9331778,-111.7238583,1
733,Kykotsmovi,AZ,35.8766568,-110.619002,1
734,Chinle,AZ,36.150143400000005,-109.56706853699023,2
735,N. Phoenix,AZ,32.2581142,-109.8356832,1
736,Cashion,AZ,33.4351349,-112.2999013,2
737,Wikieup/Wickenburg,AZ,34.700561,-113.6094047,1
738,Springerville,AZ,34.1340599,-109.2860081,2
739,Circle City,AZ,33.8149039,-112.5813594,1
740,Clay Springs,AZ,34.3617055,-110.2953961,1
741,Tuba City,AZ,36.1328917,-111.2399944,1
742,Flagstaff (near),AZ,35.210382550000006,-111.60668649717636,1
743,Gilbert/Chandler,AZ,33.2921029,-111.789791,1
744,Wikieup/Kingman,AZ,34.700561,-113.6094047,1
745,Lordsburg,AZ,33.3797969,-110.7492039,1
746,Chandler/Gilbert/Mesa,AZ,33.3110079,-111.6735670900304,1
747,Lupton,AZ,35.3539127,-109.053701,1
748,Mexican Water,AZ,36.9669462,-109.63789,2
749,unknown,AZ,35.051970299999994,-112.07987279158937,2
750,Phoenix/Glendale,AZ,33.696222899999995,-112.1503349280103,2
751,Phoenix (north of),AZ,33.4485658,-112.0732303,3
752,Palominas,AZ,31.3798232,-110.1184106,1
753,Tempe/Chandler,AZ,33.35475095,-111.83375177700243,1
754,Yuma (east of),AZ,33.3363271,-111.9804171,1
755,Vernon,AZ,34.2575361,-109.6928828,1
756,Window Rock,AZ,35.667165,-109.06341652450388,1
757,Seligman,AZ,35.3268815,-112.8763077,2
758,Tucson/Marana,AZ,32.287806700000004,-111.1559966779192,2
759,Hawley Lake,AZ,33.983936,-109.7470435,1
760,Nutrioso,AZ,33.953106,-109.2092478,1
761,Arizona,AZ,33.461066599999995,-112.07651707985708,4
762,Arivaca,AZ,31.5769832,-111.3306751,4
763,Nothing,AZ,34.479958,-113.3360128,1
764,South Tucson,AZ,32.1994951,-110.9683439,1
765,Phoenix Area,AZ,33.47805865,-112.14774349487482,1
766,Cedar Ridge,AZ,36.3929784,-111.5229059,1
767,Morristown,AZ,33.8562535,-112.61451849802984,2
768,Sun City (west of Phoenix),AZ,33.43141845,-112.2351589944733,1
769,WIckenburg,AZ,33.9680962,-112.730135,1
770,Wide Ruins,AZ,35.4194639,-109.496494,1
771,North Phoenix/Scottsdale,AZ,33.5983999,-111.9519568,1
772,Mogollon Rim,AZ,34.3990987,-111.4000808,1
773,Heber/Overgaard,AZ,34.4124475,-110.57289056921972,1
774,San Luis,AZ,32.4934395,-114.7737551,1
775,Scottsdale/Phoenix,AZ,33.61734835,-111.97904415929489,2
776,Bullhead City/Laughlin,AZ,35.1722172,-114.570681,1
777,Overgaard,AZ,34.3908717,-110.5531791,2
778,St. Michaels,AZ,35.6611745,-109.09743882514614,1
779,Chiricahua National Monument,AZ,32.01397275,-109.34754057502674,1
780,Marana (Avra Valley),AZ,32.4113732,-111.21748791631757,1
781,Sedona/Verde Valley,AZ,34.83154785000001,-111.776540021551,2
782,Lake Mead,AZ,36.217208150000005,-114.4109763071589,2
783,Sentinel,AZ,32.8581047,-113.2132371,1
784,Bowie,AZ,32.3262613,-109.4870141,3
785,Dugas,AZ,34.3619734,-111.978487,1
786,Phoenix (south of),AZ,33.43289075,-112.00942230268426,1
787,Mesa/Phoenix,AZ,33.6644407,-112.0385729,1
788,Ahwatukee-Foothills (Phoenix),AZ,33.3194186,-112.0312962,1
789,West Phoenix,AZ,33.52441,-112.10701511793545,3
790,Palo Verde,AZ,33.3487145,-112.6774657,1
791,Mobile,AZ,33.0579792,-112.2704579,1
792,Tonopah (south of),AZ,33.337775,-111.9797148,1
793,Picture Rocks,AZ,32.34284125,-111.24743805295807,1
794,California,AZ,32.1969814,-110.8227371,1
795,Pinal County,AZ,32.8085851,-111.4426212,1
796,Sanders,AZ,35.2164137,-109.333711,2
797,Bellemont,AZ,35.2380657,-111.8334974,1
798,Wickiup,AZ,34.7758538,-112.8282377,2
799,San Carlos,AZ,33.350750000000005,-110.46703014380024,2
800,Sonoran Desert,AZ,32.2598642,-112.9262583,1
801,Meteor Crater,AZ,35.02717365,-111.0227430373441,1
802,Mormon Lake,AZ,34.9083543,-111.4632051,1
803,Phoenix (area),AZ,33.47805865,-112.14774349487482,1
804,Arizona (rural),AZ,33.3283107,-111.9278501,2
805,Highway 64,AZ,34.529125386655764,-112.46354780656432,1
806,Glendale/Phoenix,AZ,33.51421305,-112.29650172906346,1
807,Arizona??,AZ,33.461066599999995,-112.07651707985708,1
808,Dripping Springs,AZ,34.390799,-111.4327316,1
809,Window Rock NM/AZ,AZ,35.6610907,-109.0672629524934,1
810,Tubac,AZ,31.629527000000003,-111.05406916905044,1
811,Martinez Lake,AZ,32.9728185,-114.4635593,1
812,Flagstaff (north of),AZ,33.835521,-111.83052,1
813,Phoenix area,AZ,33.47805865,-112.14774349487482,1
814,Cordes,AZ,34.3033628,-112.1668266,1
815,West Sedona,AZ,34.8659133,-111.8017467,1
816,Bear Canyon Lake,AZ,34.3991994,-111.00217998553914,1
817,Chandler/Queen Creek,AZ,33.2344534,-111.6856413,1
818,Kearny,AZ,33.0570085,-110.9106656,1
819,Imperial,AZ,33.4105923,-111.6622392,1
820,MM 110,AZ,31.7934799,-111.4267289,1
821,Parker Canyon Lake,AZ,31.430375400000003,-110.45687732714356,1
822,Mohawk Valley,AZ,33.6729932,-112.1302447,2
823,Petrified Forest National Park,AZ,34.9744769,-109.7079943374626,3
824,Rim Rock,AZ,33.108116,-109.7578601,1
825,Greer,AZ,34.0100477,-109.4587014,2
826,Alamo Lake State Park,AZ,34.2454342,-113.56915306163768,1
827,Apache Junction (east of),AZ,33.4455292,-111.62257,1
828,Page (Lake Powell),AZ,36.91622005,-111.45633477744376,2
829,Munds Park,AZ,34.945574,-111.6401551,1
830,Tollison,AZ,33.4500497,-112.259309,1
831,Phoenix (north Scottsdale),AZ,33.63724825,-111.92705577017112,1
832,Chloride,AZ,35.4144379,-114.1994006,1
833,Phoenix (west valley),AZ,33.6760285,-112.116412,1
834,Sedona  ( Village of Oak Creek),AZ,34.78269795,-111.7674744570773,1
835,Prescott (North of),AZ,33.2422351,-111.8070079,1
836,White Tank Mountains,AZ,33.5758827,-112.5788998,1
837,White Mountains,AZ,33.5758827,-112.5788998,1
838,Northwest Tempe,AZ,33.41413995,-111.92835782195426,1
839,Diamond Valley (Prescott Valley),AZ,34.5668434,-112.2645708,1
840,Phoenix (Tempe),AZ,33.409275949999994,-111.96135121624582,1
841,East Mesa /Apache Junction.,AZ,33.3787746,-111.5806691,1
842,Stanfield,AZ,32.879224,-111.9637063364912,1
843,St. David,AZ,31.893851,-110.22081081642511,1
844,Why,AZ,32.268672,-112.7387586,1
845,"Grand Canyon, North Rim",AZ,36.2135051,-112.0581359,1
846,Scottsdale (North of),AZ,33.5195843,-111.927161964679,1
847,Gila Bend/Ajo,AZ,32.3928407,-112.8721684,1
848,Mesa (north of),AZ,33.4310842,-111.831796,1
849,Arizona (northern),AZ,33.5525981,-112.17655595037472,1
850,Monument Valley,AZ,36.9823883,-110.1111116,1
851,Tusayan,AZ,35.9735954,-112.126556,1
852,Interstate 40,AZ,31.9641047,-110.4528594,2
853,Golden Shores/Topock,AZ,34.7802009,-114.4805297,1
854,Klondyke,AZ,32.8353435,-110.3323118,1
855,Roosevelt,AZ,33.6675484,-111.1342893,1
856,Ft. Huachuca,AZ,31.5272545,-110.36064751457845,2
857,Alamo Lake,AZ,34.2543816,-113.58067630060144,1
858,Blythe,AZ,32.3542915,-111.1058332,1
859,Apache Lake,AZ,33.622099899999995,-111.20709405545594,1
860,Desert area,AZ,35.3905629,-111.4320983,1
861,Second Mesa,AZ,35.83423805,-110.50142536730436,1
862,Alpine,AZ,33.8485353,-109.142226,2
863,Black Hills,AZ,32.8567326,-109.3222918,1
864,Willow Beach,AZ,35.8697801,-114.6600654,1
865,Encinitas,AZ,32.2739141,-110.8448225,1
866,Cardiff,AZ,32.2152854,-110.774872,1
867,Fort Huachuca,AZ,31.5272545,-110.36064751457845,1
868,Colorado River Highway,AZ,35.1775284,-114.56558,1
869,Unknown,AZ,35.051970299999994,-112.07987279158937,1
870,Highway,AZ,32.3394122,-110.7093402,1
871,Dome,AZ,32.7581725,-114.3661203,1
872,Mesa Arizona,AZ,33.4151005,-111.8314552,1
873,payson,AZ,34.2406479,-111.3230261,1
874,City,State,40.7169461,-73.9566296,1
875,Eureka Springs,AR,36.4000796,-93.7392419,10
876,Jonesboro,AR,35.8272257,-90.6949871,89
877,Little Rock,AR,34.7465071,-92.2896267,72
878,Fayetteville,AR,36.0625843,-94.1574328,69
879,Rogers,AR,36.3320197,-94.1185366,18
880,Benton,AR,36.3456186,-94.2670404,6
881,Judsonia,AR,35.270085,-91.6398575,4
882,Cave City,AR,35.9469741,-91.5511429,1
883,Hot Springs Village,AR,34.6720356,-92.9987886,2
884,Oak Grove,AR,36.4565246,-93.4364512,1
885,Hot Springs,AR,34.5038393,-93.0552437,25
886,Mountain Home,AR,36.3361391,-92.3801187,16
887,Bella Vista,AR,36.4678036,-94.2669727,2
888,Conway,AR,35.2521996,-92.6888936,40
889,Melbourne,AR,36.0595148,-91.9084819,2
890,Bigelow,AR,35.0012336,-92.6295795,7
891,Lonoke,AR,34.7414404,-91.862792,5
892,Brinkley,AR,34.8878719,-91.1945688,1
893,Littlerock,AR,34.521104,-117.983679,10
894,Pangburn,AR,35.4263113,-91.8388005,2
895,Fort Smith,AR,35.3784666,-94.3996456,46
896,Star Valley,AR,36.143845,-97.006215,1
897,Camden,AR,33.5845582,-92.8343294,12
898,Pine Bluff,AR,34.2157064,-92.0140402,6
899,Cave Springs,AR,36.2634109,-94.2318728,1
900,Russellville,AR,35.2784173,-93.1337856,31
901,Colt,AR,35.1314789,-90.8112245,1
902,Lead Hill,AR,36.4320118,-93.014342,1
903,Springdale,AR,36.1867442,-94.1288142,24
904,Marshall,AR,39.854861,-80.6616946,4
905,Ward,AR,35.0303648,-91.950421,6
906,Prim,AR,35.6939653,-92.1084844,1
907,Berryville,AR,36.3704704,-93.5695551,5
908,Morrilton,AR,35.154026,-92.7429266,5
909,Clarksville,AR,35.4713108,-93.4664819,10
910,Bauxite,AR,34.5573078,-92.5237975,5
911,Flippin,AR,36.2769948,-92.5954235,5
912,Hampton,AR,33.5380207,-92.4668693,5
913,Hensley,AR,34.504406,-92.20845564697323,1
914,Waldron,AR,34.8984323,-94.0907634,2
915,Maumelle,AR,34.856613,-92.4056858,6
916,Hamburg,AR,33.2281757,-91.7976285,1
917,Huntsville,AR,36.0884253,-93.7375258,2
918,Winslow,AR,35.8001035,-94.1325842,2
919,Cotter,AR,36.2711798,-92.5354402,2
920,Cabot,AR,34.974532,-92.0165336,11
921,LITTLE ROCK,AR,34.7465071,-92.2896267,1
922,Sardis,AR,39.3375879,-80.4178689,1
923,Hot springs,AR,34.5038393,-93.0552437,1
924,Mountain View,AR,35.8684075,-92.1176521,3
925,Siloam Springs,AR,36.1881365,-94.5404962,8
926,West Fork,AR,35.9242477,-94.1885387,2
927,Ola,AR,35.0323119,-93.2232345,1
928,Hope,AR,33.6670616,-93.5915665,2
929,Clinton,AR,35.5914666,-92.4604361,5
930,Paragould,AR,36.0584021,-90.4973286,13
931,Yellville,AR,36.2261815,-92.6848876,3
932,Powhatan,AR,36.0822925,-91.1184589,1
933,Fordyce,AR,33.8137161,-92.4129303,2
934,Greenwood,AR,35.2167352,-94.2560266,6
935,Leslie,AR,35.8303873,-92.5578551,3
936,Van Buren,AR,35.5759086,-92.4916144,10
937,Bull Shoals,AR,36.383956,-92.5815527,1
938,Patterson,AR,35.2567534,-91.2351255,1
939,Mayflower,AR,34.9570325,-92.4273785,5
940,Gassville,AR,36.2831238,-92.4940505,3
941,Knoxville,AR,35.3816786,-93.3639938,1
942,Viola,AR,36.3967317,-91.9826515,1
943,West Helena,AR,34.5506573,-90.6417741,2
944,West Memphis,AR,35.1464797,-90.1845388,8
945,Rector,AR,36.2630583,-90.2926055,1
946,Jasper,AR,36.0081324,-93.1865659,8
947,Fairfield Bay,AR,35.6052619,-92.2677334,1
948,Ozark,AR,35.4888029,-93.831516,4
949,Hazen,AR,34.7813665,-91.5789815,1
950,Mena,AR,34.5837324,-94.2376664,12
951,Bentonville,AR,36.3728538,-94.2088172,16
952,Cherokee Village,AR,36.295861,-91.5419811,4
953,Havana,AR,35.1112128,-93.528936,1
954,North Little Rock,AR,34.769536,-92.2670941,13
955,Alma,AR,35.4778653,-94.2218752,9
956,Osceola,AR,35.7050778,-89.969532,3
957,Y-City,AR,34.7348248,-94.0771521,1
958,Ashdown,AR,33.67344,-94.1299625,3
959,Blytheville,AR,35.9288199,-89.9073557,2
960,Hattieville,AR,35.2875814,-92.7868322,1
961,Gateway,AR,36.490349,-93.9318661,1
962,Floyd,AR,35.1948069,-91.9676445,1
963,Jacksonville,AR,34.8662005,-92.1101458,7
964,Bono,AR,35.9089594,-90.7987293,3
965,Earle,AR,35.2707245,-90.4656194,1
966,Wright,AR,34.4350955,-92.0662539,1
967,Beebe,AR,35.0735738,-91.8863516,3
968,Gilbert,AR,35.9912834,-92.7163137,3
969,Quitman,AR,35.3826422,-92.2150415,1
970,Prescott,AR,33.8026107,-93.3810057,2
971,Mt. Ida,AR,34.5544099,-93.6327926,1
972,Newberry,AR,39.22063465,-81.69375997063837,1
973,Jessieville,AR,34.7012029,-93.0615688,1
974,Greenbrier,AR,35.2339274,-92.3877837,8
975,Cave city,AR,35.9469741,-91.5511429,1
976,Imboden,AR,36.2025683,-91.1745727,2
977,Farmington,AR,36.0420248,-94.2471515,3
978,Sherwood,AR,34.8150907,-92.2243153,5
979,Central City,AR,35.3266955,-94.2337548,1
980,Crossett,AR,33.1263899,-91.96297,1
981,Malvern,AR,34.3625823,-92.8092694,6
982,Dardanelle,AR,35.2231408,-93.1579532,5
983,Perryville,AR,35.0048102,-92.8026673,2
984,McRae,AR,35.1137095,-91.8217004,2
985,Tontitown,AR,36.1778565,-94.2335396,3
986,Elkins,AR,36.0014682,-94.0082547,3
987,Hartman,AR,35.4325849,-93.6154676,4
988,Lake City,AR,35.8178347,-90.4352475,1
989,Batesville,AR,35.769799,-91.6409722,8
990,Clarkridge,AR,36.4778428,-92.3512705,1
991,Texarkana,AR,33.4254259,-94.0430937,5
992,Holiday Island,AR,36.4853478,-93.7321378,2
993,Needham,AR,35.8225749,-90.5351076,1
994,Nunley,AR,34.5406622,-94.1602075,1
995,Bryant,AR,34.5959265,-92.4890469,8
996,Hot Springs National Park,AR,34.51802,-93.0529422,2
997,Board Camp,AR,34.5378842,-94.0954828,1
998,Helena,AR,34.539412,-90.6155926,3
999,Fountain Hill,AR,33.355227,-91.8508008,2
1000,Centerton,AR,36.3652679,-94.2886875,5
1001,Harrison,AR,39.2820223,-80.3789878,9
1002,Newport,AR,35.608376,-91.2688024,4
1003,Corning,AR,36.4083989,-90.5859698,2
1004,Gosnell,AR,35.9576203,-89.9710071,1
1005,Light,AR,36.0700694,-90.7478918,2
1006,Pea Ridge,AR,36.4515042,-94.1162147,2
1007,Lexa,AR,34.5971607,-90.7503729,1
1008,Gum Springs,AR,33.9787123,-92.2740373,1
1009,Forrest City,AR,35.0081474,-90.7898342,3
1010,Luxora,AR,35.7551717,-89.9291501,2
1011,New Blaine,AR,35.2895304,-93.4201836,1
1012,Trumann,AR,35.675279,-90.517369,2
1013,Mount Ida,AR,34.5544099,-93.6327926,3
1014,Midway,AR,35.5178579,-91.6009699,1
1015,Alexander,AR,34.6295373,-92.4412674,3
1016,El Dorado,AR,33.2115087,-92.6650144,10
1017,Lincoln,AR,33.9359663,-91.7713274,1
1018,Prairie Grove,AR,35.9774334,-94.3137353,3
1019,Marion,AR,36.2378521,-92.6999559,3
1020,Lowell,AR,36.2553543,-94.1307587,5
1021,London,AR,35.328973,-93.2529553,1
1022,Star City,AR,33.9428794,-91.8434668,1
1023,Boonville,AR,35.14076735,-93.91501054314168,1
1024,Magnolia,AR,33.2670725,-93.2393341,3
1025,McGehee,AR,33.6294189,-91.399277,1
1026,Heber Springs,AR,35.4976958,-92.0324875,7
1027,Gurdon,AR,33.9182285,-93.1488168,1
1028,Grannis,AR,34.2406665,-94.3349306,1
1029,Fern,AR,35.6389719,-94.0163117,1
1030,Garfield,AR,38.9548043,-81.5445683,3
1031,Beaver Lake,AR,36.2888866,-94.01548207774958,2
1032,Highfill,AR,36.2613983,-94.3574694,1
1033,Pleasant Grove,AR,35.8606296,-90.6495553,1
1034,Monticello,AR,33.6293427,-91.7912327,2
1035,Beaver,AR,36.4746591,-93.7691308,1
1036,Lewisville,AR,33.3584583,-93.5776771,1
1037,Sherwood/North Little Rock,AR,34.84465225,-92.24333632669558,1
1038,Lonsdale,AR,34.5443578,-92.8094141,1
1039,Pocahontas,AR,36.2612154,-90.9711021,8
1040,Booneville,AR,35.1403474,-93.9219333,3
1041,Walnut Ridge,AR,36.0680241,-90.9561004,2
1042,Horseshoe Lake,AR,34.9134499,-90.3078803,1
1043,Black Rock,AR,36.1088761,-91.0982824,1
1044,Rudy,AR,35.5278646,-94.2707653,1
1045,Bryant/Benton,AR,36.414718,-94.085687,1
1046,Briggsville,AR,34.9339818,-93.494357,1
1047,Mount Vernon,AR,35.5514712,-93.4301828,1
1048,White Hall,AR,34.2752744,-92.0917001,2
1049,Sunshine,AR,33.1870653,-91.5295651,1
1050,Dennard,AR,35.7567444,-92.5246054,1
1051,England,AR,34.5442609,-91.9690285,2
1052,Damascus,AR,35.3613795,-92.41464301316265,1
1053,Sims,AR,34.659264,-93.6910292,1
1054,Umpire,AR,34.2789981,-94.0507527,1
1055,Hector,AR,35.4683154,-92.9750046,1
1056,Fifty Six,AR,35.9579034,-92.2201401,1
1057,Paris,AR,35.2920325,-93.7299173,1
1058,Saint Joe,AR,36.0298228,-92.8085707,1
1059,Lake Village,AR,33.3294799,-91.2850584,2
1060,Whitehall,AR,39.4211977,-80.1825815,1
1061,Hagarville,AR,35.5156375,-93.3249015,2
1062,Eudora,AR,33.1147167,-91.2608555,1
1063,Wynne,AR,35.224533,-90.7867798,2
1064,Smackover,AR,33.3648455,-92.7248822,2
1065,Atkins,AR,35.2457358,-92.9368372,1
1066,Bonnerdale,AR,34.384816,-93.3818521,1
1067,Pottsville,AR,35.2481394,-93.049061,3
1068,Gravette,AR,36.4208054,-94.4526535,4
1069,Waldenburg,AR,35.5654805,-90.9345126,1
1070,Waldo,AR,33.351514,-93.2957251,1
1071,Cabot/Lonoke,AR,34.974532,-92.0165336,1
1072,Searcy,AR,35.9018987,-92.7098744,6
1073,Ft. Smith,AR,35.3784666,-94.3996456,2
1074,War Eagle,AR,37.528443,-81.9440093,1
1075,Gillham,AR,34.170609,-94.3155722,1
1076,Marked Tree,AR,35.5303908,-90.417473,4
1077,Wilmont,AR,43.764687,-95.827237,1
1078,Bald Knob,AR,35.3098066,-91.5679114,2
1079,Pangburn/Searcy,AR,35.4269169,-91.8374103,1
1080,Decatur,AR,36.3359112,-94.4607707,2
1081,Buckner,AR,33.3584581,-93.4360073,1
1082,Mulberry,AR,35.5006417,-94.0515919,1
1083,Bluff City,AR,33.7179547,-93.1332802,1
1084,Scott,AR,34.8469384,-94.0431714,1
1085,Proctor,AR,35.0950918,-90.3734326,1
1086,Arden,AR,39.2103748,-79.9931345,1
1087,Washington (near),AR,39.7669788,-86.1414063,1
1088,Kingston,AR,35.0167573,-93.3151825,2
1089,Gentry,AR,36.2675793,-94.4846602,3
1090,Calamine,AR,36.0114607,-91.3990228,1
1091,Crystal Springs,AR,34.5220352,-93.3360221,1
1092,Chester,AR,35.6809165,-94.1752057,3
1093,Arkadelphia,AR,34.1209292,-93.053784,1
1094,Metalton,AR,36.2231279,-93.5299102,2
1095,Holly Springs,AR,35.353694,-91.7440281,1
1096,Henderson,AR,36.3806216,-92.2276564,1
1097,Marble Falls,AR,36.1030426,-93.1294779,1
1098,Hickory Plains,AR,34.9900884,-91.7368032,2
1099,Louisville,AR,35.342561,-94.396257,1
1100,Eldorado,AR,34.787073,-92.418397,2
1101,LittleRock,AR,34.521104,-117.983679,1
1102,Kibler,AR,35.4303664,-94.231598,1
1103,Camp Albert Pike,AR,34.374334,-93.878011,1
1104,Summers,AR,37.6293626,-80.8458259,1
1105,Norfork,AR,36.2095132,-92.284323,2
1106,West Little Rock,AR,34.7084256,-92.3876543,1
1107,Crumrod,AR,34.148716,-90.9817766,1
1108,Ferndale,AR,34.7789801,-92.5576604,1
1109,Snowball,AR,35.9064651,-92.8218344,1
1110,Cane Hill,AR,33.3095652,-92.3043088,1
1111,Royal,AR,34.5114783,-93.2410211,2
1112,Goshen,AR,36.1011886,-93.9913099,1
1113,Austin,AR,34.9984206,-91.9837552,1
1114,Coal Hill,AR,35.4373073,-93.6729697,4
1115,Little Rock (Lonoke),AR,34.9798415,-92.0296852,1
1116,Social Hill,AR,34.3320363,-92.9132276,1
1117,Westlake Village,AR,41.208916,-95.870743,1
1118,Fountain Lake,AR,34.6109499,-92.9195139,1
1119,on highway,AR,35.29695745,-94.4225246757528,1
1120,Oil Trough,AR,35.6298022,-91.4608531,1
1121,Dover,AR,35.4004413,-93.1142982,4
1122,Sheridan,AR,34.3100971,-92.4013484,1
1123,Augusta,AR,35.2823079,-91.3654063,2
1124,Dora,AR,35.4542563,-94.4407704,1
1125,Success,AR,36.4542025,-90.7232754,1
1126,Charleston/Van Buren,AR,35.523463,-92.826191,1
1127,Knobel,AR,36.3197167,-90.5998428,1
1128,Horatio,AR,33.9378858,-94.3539944,1
1129,Doddridge,AR,39.2632436,-80.7299566,1
1130,Rose Bud,AR,35.3320135,-92.081281,1
1131,Chimes,AR,35.6981337,-92.7384985,1
1132,Monett,AR,36.9289518,-93.9277149,1
1133,Peach Orchard,AR,36.2786754,-90.6628897,1
1134,Stephens,AR,33.4112328,-93.0696101,1
1135,Hartford,AR,35.0228761,-94.3813277,1
1136,Salem,AR,36.3711104,-91.8270949,1
1137,Greers Ferry,AR,35.5770219,-92.1773746,2
1138,Bee Branch,AR,35.4509118,-92.3946005,1
1139,Petit Jean Mountain,AR,35.0228708,-93.6999183,2
1140,Calico Rock,AR,36.1195143,-92.1359867,1
1141,Formosa,AR,35.4631338,-92.5101584,1
1142,Shirley,AR,35.6574345,-92.317343,1
1143,Timbo,AR,35.8709084,-92.3171009,1
1144,Fulton,AR,36.3783981,-91.8110982,2
1145,Ponca,AR,36.0242433,-93.3646264,1
1146,Prairie   Grove,AR,35.9774334,-94.3137353,1
1147,Overcup,AR,35.3542514,-91.2304036,1
1148,Casa,AR,35.0235603,-93.0472305,1
1149,Little Rock (north of),AR,34.7684304,-92.2798641,1
1150,Glendale,AR,35.8497965,-90.6409439,1
1151,Hermitage,AR,33.4486196,-92.1737243,1
1152,Pine Mountain,AR,36.3417357,-92.9015606,1
1153,Stuttgart,AR,34.5003748,-91.5526281,1
1154,McCrory,AR,35.2561979,-91.2001246,1
1155,Junction City,AR,33.0175145,-92.7249834,1
1156,Western Grove,AR,36.1009071,-92.9537828,1
1157,Story,AR,34.6931392,-93.5178973,1
1158,Morgan,AR,39.5455257,-78.2592246,1
1159,DeWitt,AR,37.9315016,-81.1264898,2
1160,Glenwood,AR,34.3261804,-93.547084,1
1161,Desert,AR,38.7425911,-81.166226,1
1162,Lake DeGray,AR,34.260276250000004,-93.20589858063832,1
1163,Vilonia,AR,35.083975,-92.2079277,1
1164,Holland County,AR,35.1714733,-92.2737629,1
1165,Brooklyn,AR,39.6353548,-80.8634332,2
1166,Oxley,AR,35.8422982,-92.4571041,1
1167,Pinebergen,AR,34.1028768,-91.9923612,1
1168,PottsVille,AR,35.2481394,-93.049061,1
1169,Newell,AR,33.165966,-92.7446041,1
1170,Avilla,AR,34.6825921,-92.5851613,1
1171,Stamps,AR,33.3654024,-93.4951758,1
1172,Hardy,AR,39.0040008,-78.8441276,2
1173,Calion,AR,33.3296513,-92.5401465,2
1174,Tomberlin,AR,34.5159283,-91.8715253,1
1175,Humnoke,AR,34.5418439,-91.7572237,1
1176,Little Rock (southwest),AR,34.6670784,-92.352408,1
1177,Glen Rose,AR,34.4556481,-92.7296104,1
1178,Scotland,AR,35.5275782,-92.611828,1
1179,Dierks,AR,34.1192785,-94.0165816,1
1180,Sedgwick,AR,35.9778495,-90.864006,1
1181,City,State,40.7169461,-73.9566296,1
1182,Halfmoon bay,CA,28.0270704,-80.7242426,1
1183,Riverside,CA,33.9533546,-117.3961623,115
1184,San Bernardino,CA,34.8253019,-116.0833144,76
1185,Santa Barbara,CA,34.4221319,-119.702667,115
1186,Hercules,CA,38.0171441,-122.2885808,4
1187,Modesto,CA,37.6390972,-120.9968782,113
1188,Fallbrook,CA,33.3764196,-117.2511466,23
1189,Hiouchi,CA,41.7926137,-124.0720219,1
1190,pleasant hill,CA,37.9479786,-122.0607963,1
1191,Victorville,CA,34.5361067,-117.2911565,31
1192,Tulare,CA,36.2516475,-118.852583,13
1193,Novato,CA,38.1061979,-122.5681191,19
1194,Irvine,CA,33.6856969,-117.8259819,87
1195,Napa,CA,38.2971367,-122.2855293,51
1196,Somis,CA,34.2572261,-118.9962124,3
1197,Richmond,CA,37.9357576,-122.347748,19
1198,San Jose,CA,37.3361663,-121.890591,257
1199,Lemon Grove,CA,32.7425516,-117.0314172,7
1200,lockford,CA,33.7369774,-117.7670356,1
1201,San Diego,CA,32.7174202,-117.1627728,502
1202,Menifee,CA,33.6864432,-117.1770437,31
1203,NORTH HOLLYWOOD,CA,34.1649502,-118.3747521,1
1204,Orcutt,CA,34.8650717,-120.4366904,5
1205,Northridge,CA,34.2345615,-118.5369316,18
1206,West Hollywood,CA,34.0923014,-118.3692894,11
1207,Barstow,CA,34.8957684,-117.0172077,22
1208,Newbury Park,CA,34.183671,-118.91183,13
1209,Oakland,CA,37.8044557,-122.271356,85
1210,Compton / Paramount,CA,33.8962195,-118.1890044,1
1211,Needles,CA,34.8480597,-114.6141316,8
1212,Burbank,CA,34.1812089,-118.307201,101
1213,Sacramento,CA,38.5810606,-121.493895,298
1214,Fremont,CA,37.5482697,-121.988571,45
1215,Adelanto,CA,34.5827699,-117.409215,5
1216,Rancho mission viejo,CA,33.4805821,-117.5675468,1
1217,Concord,CA,37.9768525,-122.0335624,31
1218,Yucaipa,CA,34.033625,-117.0430865,23
1219,Santa Clara,CA,37.2333253,-121.6846349,34
1220,SUSANVILLE,CA,40.4162842,-120.653006,1
1221,Near San Diego,CA,32.55946645,-117.063183027016,1
1222,Fiddletown,CA,38.5037966,-120.7554891,1
1223,Yucca Valley,CA,34.1236205,-116.4139839,17
1224,Fontana,CA,34.0922335,-117.435048,51
1225,LAKE HAVASU CITY,CA,34.4838502,-114.322449,1
1226,Bakersfield,CA,35.3738712,-119.0194639,136
1227,Arroyo Grande,CA,35.1185869,-120.590725,17
1228,Magalia,CA,39.8219895,-121.6106544865772,4
1229,marina del rey los angeles,CA,33.9776848,-118.448647,1
1230,Spring Valley,CA,32.729639500000005,-116.9668617593562,30
1231,Palm desert,CA,33.7288179,-116.382571,2
1232,Whittier,CA,33.9708782,-118.030839,55
1233,Rancho Palos Verdes,CA,33.7483311,-118.3707683,16
1234,Tarzana (Los Angeles),CA,34.1689295,-118.536567,1
1235,Torrance,CA,33.8358492,-118.3406288,54
1236,San Bernadino,CA,33.979251000000005,-117.64642031789684,7
1237,Foothill Ranch,CA,37.7501183,-121.4560477,7
1238,Turlock,CA,37.4946568,-120.8465941,28
1239,Lake Forest,CA,33.6469261,-117.6859213,21
1240,Banning,CA,33.9255685,-116.875289,9
1241,westminster,CA,33.7578725,-117.9859054,1
1242,Diablo/Martinez,CA,37.9889481,-122.0989793,1
1243,Corte Madera,CA,37.9254806,-122.527475,12
1244,Wasco,CA,35.5941238,-119.3409457,3
1245,Lynwood,CA,33.924831,-118.2024154,4
1246,Jamul,CA,32.7169988,-116.8761347,3
1247,Azusa,CA,34.1338751,-117.9056046,15
1248,Hemet,CA,33.7475203,-116.9719684,41
1249,Roseville,CA,38.7521235,-121.2880059,66
1250,Redwood valley,CA,39.2654449,-123.204449,1
1251,San Francisco,CA,37.7790262,-122.419906,232
1252,Chatsworth,CA,34.2595715,-118.6023247,18
1253,Canyon Country,CA,34.4233293,-118.4720281,11
1254,Seal Beach,CA,33.7423967,-118.1055926,12
1255,Quincy,CA,39.9309945,-120.95357394728885,16
1256,Nipomo,CA,35.035821600000006,-120.4964189159617,15
1257,Paso Robles,CA,35.6267654,-120.6912456,23
1258,Sebastopol,CA,38.4021127,-122.8242666,22
1259,Palmdale,CA,34.5793131,-118.1171108,55
1260,Chula Vista,CA,32.6400541,-117.0841955,43
1261,Huntington Beach,CA,33.6783336,-118.0000166,91
1262,Poway,CA,32.9628234,-117.0358646,26
1263,Sattley,CA,39.6160137,-120.4271545,1
1264,Chino Hills,CA,33.9926803,-117.760056,14
1265,San Marcos,CA,33.1433723,-117.1661449,26
1266,Beverly Hills,CA,34.0696501,-118.3963062,9
1267,Half Moon Bay,CA,37.4635519,-122.428586,15
1268,Vista,CA,33.2000368,-117.2425355,42
1269,Ventura,CA,34.4458248,-119.0779359,90
1270,Fowler,CA,36.6305058,-119.678469,3
1271,Palo Alto,CA,37.4443293,-122.1598465,24
1272,Chico,CA,39.7284945,-121.8374777,63
1273,Walnut Creek,CA,37.9020731,-122.0618702,25
1274,Baldwin Park,CA,34.0854739,-117.9611761,12
1275,Tehachapi,CA,35.1321878,-118.4489739,20
1276,Los Gatos,CA,37.226611,-121.9746797,10
1277,Santa Monica,CA,34.0194704,-118.491227,61
1278,Rocklin,CA,38.7907339,-121.2357828,23
1279,Apple valley,CA,34.5008311,-117.1858759,2
1280,San Clemente,CA,33.4270275,-117.6124179,38
1281,Montara,CA,37.54157665,-122.50843139031538,6
1282,Los Angeles,CA,34.0536909,-118.242766,485
1283,Orange,CA,33.7500378,-117.8704931,41
1284,Fontan,CA,34.0930125,-117.441968,1
1285,Yucca valley,CA,34.1236205,-116.4139839,2
1286,Geyserville,CA,38.707687,-122.902496,5
1287,Rancho Cucamonga,CA,34.1033192,-117.5751735,49
1288,Long Beach,CA,33.7690164,-118.191604,134
1289,Lake Henshaw,CA,33.23926385,-116.749027520069,1
1290,Culver City,CA,34.0211224,-118.396466,21
1291,Portola,CA,39.819389,-120.46736204229074,1
1292,Indio,CA,33.7192808,-116.2188054,34
1293,Clovis,CA,36.8252277,-119.7029194,47
1294,West Hills,CA,34.2032325,-118.645476,14
1295,westlake village,CA,34.1460234,-118.8061794,2
1296,escondido,CA,33.1216751,-117.0814849,1
1297,Santa Rosa,CA,38.4404925,-122.7141049,112
1298,Eureka,CA,40.7906871,-124.1673746,41
1299,Sierra Madre,CA,34.1616729,-118.052845,5
1300,Cottonwood,CA,40.3914405,-122.2833059594185,10
1301,Gridley,CA,39.3637773,-121.693583,4
1302,Friant,CA,36.983858,-119.71346236018483,4
1303,Murrieta,CA,33.560832,-117.2106564,35
1304,Ontario,CA,34.065846,-117.6484304,26
1305,Lompoc,CA,34.6391501,-120.4579409,17
1306,Canoga Park,CA,34.2011078,-118.5978087,18
1307,Carpinteria,CA,34.3988838,-119.5184564,11
1308,Mendota,CA,36.7535486,-120.381557,4
1309,Apple Valley,CA,34.5008311,-117.1858759,30
1310,Warner Springs,CA,33.2822596,-116.6336303,5
1311,Upland,CA,34.09751,-117.6483876,24
1312,Stockton,CA,37.9577016,-121.2907796,63
1313,Covina,CA,34.0877926,-117.8891164,31
1314,Salinas,CA,36.6744117,-121.655037,48
1315,Malibu,CA,34.035591,-118.689423,24
1316,Pioneer,CA,38.4318551,-120.5718719,2
1317,Oceanside,CA,33.1958696,-117.3794834,55
1318,Ridgecrest,CA,35.6206924,-117.6720975,35
1319,Lebec,CA,34.8416435,-118.8648189,3
1320,"Van Nuys, Los Angeles",CA,34.1866193,-118.4486675,1
1321,Van Nuys,CA,34.1866193,-118.4486675,40
1322,Live Oak,CA,39.2757232,-121.65997,4
1323,Carmichael,CA,38.62709845,-121.32224222755409,24
1324,ANTIOCH,CA,38.0049214,-121.805789,1
1325,Ramona,CA,33.035378,-116.86751322074122,17
1326,Death Valley,CA,36.42287215,-116.91371800979375,7
1327,Susanville,CA,40.4162842,-120.653006,17
1328,Moreno valley,CA,33.937517,-117.2305944,2
1329,Fresno,CA,36.7394421,-119.7848307,170
1330,Montclair,CA,34.0775104,-117.6897776,8
1331,Carlsbad,CA,33.1580933,-117.3505966,61
1332,Livermore,CA,37.6820583,-121.768053,32
1333,IMPERIAL BEACH,CA,32.5839444,-117.1130849,2
1334,El Cajon,CA,32.7947731,-116.962526,84
1335,Ione,CA,38.3526913,-120.932717,2
1336,Rancho Bernardo,CA,33.0186103,-117.0610495,7
1337,Temecula,CA,33.4946353,-117.1473661,80
1338,Corona,CA,33.8752945,-117.5664449,73
1339,Sonora,CA,37.9840911,-120.3821381,31
1340,SOLANA BEACH,CA,32.9905597,-117.269131,1
1341,san francisco,CA,37.7790262,-122.419906,1
1342,Cloverdale,CA,38.776218,-122.99300818666056,11
1343,Lucerne Valley,CA,34.4436167,-116.9455239,6
1344,Los Altos,CA,37.3790629,-122.116578,17
1345,Exeter,CA,36.2960613,-119.142051,6
1346,Redlands,CA,34.0550328,-117.1827445,37
1347,Davis,CA,38.545379,-121.744583,35
1348,Chino,CA,34.0133561,-117.690075,23
1349,Antelope,CA,38.7082357,-121.3299513,16
1350,Pacifica,CA,37.6138253,-122.4869194,13
1351,La Jolla,CA,32.8401623,-117.2740777,19
1352,Santa Cruz,CA,37.050096,-121.9905908,73
1353,Carmel,CA,38.75511285,-121.35330894827251,8
1354,Watsonville,CA,36.9092773,-121.7529071,42
1355,Big Sur,CA,36.270241,-121.807454,9
1356,Studio City,CA,34.1483989,-118.3961877,20
1357,Playa del Rey,CA,33.9541453,-118.4388067,11
1358,Tulelake,CA,41.955989,-121.477492,3
1359,South of Corona,CA,33.8402434,-117.5722316,1
1360,Littlerock,CA,34.5213675,-117.98739359695348,13
1361,San Rafael,CA,37.9735346,-122.5310874,38
1362,Ragged point,CA,35.7595645,-121.3268269,1
1363,Redding,CA,40.5863563,-122.391675,100
1364,San Miguel,CA,35.754959,-120.69322707884932,3
1365,Fountain Valley,CA,33.7038145,-117.9627349,13
1366,Ocotillo wells,CA,33.1441418,-116.1332011,1
1367,LONG BEACH,CA,33.7690164,-118.191604,1
1368,Camarillo,CA,34.2176371,-119.0383541,30
1369,Las lomas,CA,36.8688754,-121.73079753160816,1
1370,Coachella,CA,33.6794956,-116.17628,5
1371,Visalia,CA,36.3302284,-119.292058,51
1372,Landers,CA,34.266114,-116.3930703,10
1373,Daly City,CA,37.6904826,-122.47267,21
1374,Folsom,CA,38.6779591,-121.1760583,29
1375,Lincoln,CA,38.8598295,-121.34239205792436,21
1376,Salton City,CA,33.2966685,-115.95853910224128,2
1377,Willits,CA,39.4096043,-123.3555602,11
1378,Palm Desert,CA,33.7288179,-116.382571,50
1379,French Camp,CA,37.876291,-121.2717439299314,3
1380,San Juan Capistrano,CA,33.5016932,-117.6625509,13
1381,Martinez,CA,38.0138934,-122.1338674,33
1382,Cameron Park,CA,38.682001850000006,-120.98514424518402,8
1383,Creston,CA,35.5188604,-120.523774,1
1384,Kirkwood,CA,38.690863,-120.0545120325384,3
1385,Tarzana,CA,34.1689295,-118.536567,9
1386,Mountain Center,CA,33.7152274,-116.7249910306136,2
1387,San Bruno,CA,37.6261715,-122.433243,9
1388,Laytonville,CA,39.672754,-123.49403629674796,6
1389,Solvang,CA,34.595887,-120.139071,7
1390,Alameda,CA,37.6090291,-121.899142,19
1391,Johnson Valley,CA,34.0090181,-117.484151,1
1392,Outside LA,CA,36.1973838,-119.2341594,1
1393,Santa Fe Springs,CA,33.9480787,-118.0691499,5
1394,Orland,CA,39.7471106,-122.191135,21
1395,Imperial Beach,CA,32.5839444,-117.1130849,16
1396,Corcoran,CA,36.098007,-119.5604015,3
1397,Emeryville,CA,37.8314089,-122.2865266,8
1398,Palm springs,CA,33.8246269,-116.540303,2
1399,Pasadena,CA,34.1476452,-118.1444779,50
1400,Redondo Beach,CA,33.8455911,-118.3886766,37
1401,Compton,CA,33.894927,-118.226624,13
1402,Bonita,CA,32.664798,-117.01596176077472,5
1403,Hayward,CA,37.6688205,-122.080796,69
1404,Castro Valley,CA,37.71573685,-122.09063177147787,28
1405,Granada Hills,CA,34.2661558,-118.5174342,8
1406,Jenner,CA,38.4496365,-123.1155588,5
1407,Vallejo,CA,38.1040864,-122.2566367,30
1408,Camino Capistrano,CA,33.1117426,-117.2328202,1
1409,Gretna,CA,34.0517196,-118.4756642,1
1410,Desert Hot Springs,CA,33.961124,-116.5016784,16
1411,Hanford,CA,36.3274502,-119.6456844,14
1412,Castro valley,CA,37.71573685,-122.09063177147787,2
1413,Sherman oaks,CA,34.1508718,-118.4489865,1
1414,Bishop,CA,37.363679,-118.39524,12
1415,Burney,CA,40.8884145,-121.67278262034247,6
1416,Placerville,CA,38.7296252,-120.798546,27
1417,Campbell,CA,37.2870626,-121.9448818,25
1418,Joshua Tree,CA,34.1265262,-116.32093491214891,16
1419,Elk,CA,39.1295408,-123.7158889,1
1420,Honolulu,CA,34.2245477,-118.2552541,1
1421,Ragged Point,CA,35.7595645,-121.3268269,1
1422,Traver,CA,36.451702,-119.48241857698387,1
1423,Mojave,CA,35.01096025,-118.19028326663798,25
1424,San Leandro,CA,37.7249296,-122.1560768,22
1425,Norwalk,CA,33.9092802,-118.0849169,33
1426,Tecopa,CA,35.8465745,-116.2160416137606,2
1427,Cisco Grove,CA,39.3099025,-120.5399297,1
1428,Simi Valley,CA,34.2677404,-118.7538071,57
1429,Woodland Hills,CA,34.1684364,-118.6058382,22
1430,Cathedral City,CA,33.7810031,-116.464076,24
1431,Valencia,CA,34.4131941,-118.5598491,21
1432,Loomis,CA,38.8212889,-121.193004,4
1433,Elk Grove,CA,38.4087993,-121.3716178,45
1434,Los Angeles (Malibu),CA,34.0344335,-118.6845972,1
1435,North Highlands,CA,38.6857362,-121.3721745,11
1436,Vacaville,CA,38.3565773,-121.9877444,45
1437,Oakdale,CA,37.7665947,-120.8471545,13
1438,Big Pine,CA,37.1649125,-118.29632272544802,7
1439,Sherman Oaks,CA,34.1508718,-118.4489865,39
1440,Fortuna,CA,40.597407,-124.156034,18
1441,Thousand Oaks,CA,34.1705609,-118.8375937,36
1442,South San Francisco,CA,37.6535403,-122.4168664,9
1443,Garden Grove,CA,33.7746292,-117.9463717,50
1444,Manhattan Beach,CA,33.8915985,-118.3951241,16
1445,Rancho Mirage,CA,33.757805,-116.4354884,12
1446,Antioch,CA,38.0049214,-121.805789,69
1447,Pacific Palisades,CA,34.0480643,-118.5264706,8
1448,Laguna Hills,CA,33.5948758,-117.6882067,22
1449,Palm Springs,CA,33.8246269,-116.540303,76
1450,Los angeles,CA,34.0536909,-118.242766,4
1451,Moreno Valley,CA,33.937517,-117.2305944,36
1452,Lancaster,CA,34.6981064,-118.1366153,50
1453,Lake Elsinore,CA,33.6680772,-117.3272615,34
1454,Rio Vista,CA,38.1557502,-121.6913439,3
1455,Pine Valley,CA,32.841743949999994,-116.51504789059828,3
1456,Morongo Valley,CA,34.0537585,-116.59672363338927,8
1457,Woodland,CA,38.6786109,-121.7733285,31
1458,Newport Beach,CA,33.6170092,-117.9294401,37
1459,Benicia,CA,38.049365,-122.1585777,25
1460,El Dorado,CA,38.7574137,-120.5276129,2
1461,Ukiah,CA,39.1501662,-123.2077861,19
1462,San Jacinto,CA,33.7839664,-116.9589086,19
1463,Cambria,CA,35.5641425,-121.081106,7
1464,Oroville,CA,39.5137752,-121.556359,23
1465,Morro Bay,CA,35.3658075,-120.849901,9
1466,Oakley,CA,37.9974219,-121.7124536,23
1467,Paradise Springs,CA,34.395433,-117.8063437,1
1468,Yuba Gap,CA,39.3181325,-120.5942068,1
1469,Buena park,CA,33.870413,-117.9962165,2
1470,Wilmington,CA,33.7800164,-118.262509,18
1471,Tustin,CA,33.7458511,-117.826166,26
1472,Bonsall,CA,33.276247999999995,-117.1996207741447,6
1473,Cotati,CA,38.3266798,-122.706844,8
1474,Desert Center,CA,33.7136024,-115.4004678,9
1475,San Pedro,CA,33.7358518,-118.2922934,36
1476,Crestline,CA,34.2495525,-117.29389561188812,13
1477,North Hollywood,CA,34.1649502,-118.3747521,39
1478,Socal,CA,34.069750400000004,-118.2890573176594,1
1479,Canyon Lake,CA,33.6836539,-117.262615,10
1480,Mt. Baldy,CA,40.3818066,-123.8711509,1
1481,Auburn,CA,38.8945939,-121.0739897,25
1482,Downey,CA,33.9404441,-118.1292846,27
1483,Sonoma,CA,38.5110803,-122.8473388,32
1484,Merced,CA,37.1641544,-120.7678602,32
1485,Rialto,CA,34.1064001,-117.3703235,21
1486,Rosamond,CA,34.8641446,-118.1634075,18
1487,Colton,CA,34.0739016,-117.3136547,8
1488,Glendale,CA,34.1469416,-118.2478471,39
1489,Kelseyville,CA,38.9779531,-122.8394375,18
1490,Atascadero,CA,35.4894169,-120.6707255,11
1491,Nice,CA,39.121271,-122.83560213628311,2
1492,Running Springs,CA,34.2124412,-117.12487761192112,5
1493,Calistoga,CA,38.5787966,-122.579705,7
1494,Dublin,CA,37.7021521,-121.9357918,15
1495,Kensington,CA,37.908433,-122.27658376978836,2
1496,Shaver Lake,CA,37.09684,-119.32025832557328,4
1497,Marin,CA,38.0409144,-122.6199638,3
1498,Sutter Creek,CA,38.3929675,-120.802435,2
1499,Pinon Hills,CA,34.433331,-117.6467225,3
1500,Sylmar,CA,34.3076252,-118.4492148,17
1501,Madera,CA,37.1716264,-119.7737991,29
1502,Tollhouse,CA,37.0167898,-119.4004271,1
1503,Los Osos,CA,35.3107214,-120.832348,5
1504,Garden Valley,CA,38.8540675,-120.8593809,4
1505,Encinitas,CA,33.0369867,-117.2919818,24
1506,Zamora,CA,38.7965684,-121.8819117,1
1507,Pismo Beach,CA,33.7312058,-117.7697509,14
1508,Tallahassee,CA,37.3439662,-121.8299324,1
1509,San Mateo,CA,37.496904,-122.3330573,18
1510,Santa Margarita,CA,35.3899734,-120.609057,3
1511,Cayucos,CA,35.4427512,-120.8921254,6
1512,South Lake Tahoe,CA,38.9332411,-119.9843482,14
1513,Santee,CA,32.8383828,-116.9739167,27
1514,Yorba linda,CA,33.8901096,-117.8249705,1
1515,Grass Valley,CA,39.2190607,-121.06292,31
1516,Lucerne,CA,39.0742975,-122.8019956672912,2
1517,Santa Ana,CA,33.7494951,-117.8732213,57
1518,Jamestown,CA,37.9588565,-120.40443116813324,5
1519,Porterville,CA,36.06523,-119.0167679,33
1520,Oxnard,CA,34.1976308,-119.1803818,60
1521,Santa Paula,CA,34.3541659,-119.0592705,11
1522,Las Brisas,CA,33.6619064,-117.8320157,1
1523,Kingsburg,CA,36.5138398,-119.5538929,4
1524,Rock Round,CA,41.731952,-124.19139090958416,1
1525,El Cerrito,CA,37.9154056,-122.301411,9
1526,Newark,CA,37.5296593,-122.0402399,9
1527,Salida,CA,37.7151375,-121.08667876282566,4
1528,San Luis Obispo,CA,35.3540209,-120.3757163,21
1529,Trabuco Canyon,CA,33.6626232,-117.58938,4
1530,Bell Gardens,CA,33.9694561,-118.1503953,2
1531,Simi valley,CA,34.2677404,-118.7538071,2
1532,Temple CIty,CA,34.1082994,-118.0577568,1
1533,Lathrop,CA,37.8227046,-121.27661,8
1534,Clearlake,CA,38.9582307,-122.626372,14
1535,Altadena,CA,34.1863161,-118.1352329,7
1536,La Mesa,CA,32.7678288,-117.0230839,34
1537,Gardena,CA,33.8963593,-118.3053037,13
1538,Greenville,CA,40.1368465,-120.95057800475286,2
1539,Rocklin/ Roseville,CA,38.7985987,-121.29749278977629,1
1540,Placentia,CA,33.8714814,-117.8617337,15
1541,Shingletown,CA,40.5023815,-121.87332566126672,5
1542,Temple City,CA,34.1082994,-118.0577568,11
1543,Brentwood,CA,37.9317766,-121.696026,17
1544,Grants,CA,34.1329764,-117.897606,1
1545,lake elsinore,CA,33.6680772,-117.3272615,1
1546,Rosemead,CA,34.0676169,-118.0879763,10
1547,Escondido.,CA,33.1216751,-117.0814849,1
1548,Rancho mirage,CA,33.757805,-116.4354884,2
1549,Anaheim,CA,33.8347516,-117.911732,92
1550,Signal Hill,CA,33.804826,-118.168259,3
1551,Aguanga,CA,33.4428094,-116.8650235,2
1552,Mount Shasta,CA,41.4091897,-122.194953,17
1553,Hollister,CA,36.8524545,-121.4016021,31
1554,Valley Glen,CA,34.1826379,-118.4138666,2
1555,Joshua tree,CA,34.1265262,-116.32093491214891,1
1556,palm desert,CA,33.7288179,-116.382571,1
1557,Phoenix,CA,33.699151,-117.7769286,1
1558,Borrego Springs,CA,33.2566792,-116.3782682,13
1559,Los Banos,CA,37.0592253,-120.8505342,25
1560,Southgate,CA,37.4333295,-122.1512119,3
1561,Eastvale,CA,33.9747067,-117.566541,12
1562,Mission Viejo,CA,33.5965685,-117.659405,35
1563,Wheatland,CA,39.0098947,-121.423013,2
1564,Playa Del Rey,CA,33.9541453,-118.4388067,4
1565,Reseda,CA,34.2006552,-118.536528,19
1566,Santa Clarita,CA,34.3916641,-118.542586,32
1567,Pearsonville,CA,35.8167155,-117.87504554504264,1
1568,Graton,CA,38.4386185,-122.86569767534336,3
1569,Junction City,CA,40.733199,-123.05364,1
1570,Lemoore,CA,36.3006495,-119.7827122,14
1571,Lakeside,CA,32.8572719,-116.9222489,24
1572,West Covina,CA,34.0686208,-117.9389526,21
1573,Nuevo,CA,33.8056345,-117.13956015339622,2
1574,Winterhaven,CA,32.7396688,-114.6351955,3
1575,Huntington Park,CA,33.9827043,-118.2120343,5
1576,Lafayette,CA,37.8857582,-122.1180201,10
1577,Temescal Canyon,CA,34.0806199,-118.5408603,1
1578,La Quinta,CA,33.6654913,-116.27769556269428,19
1579,Glendora,CA,34.1361187,-117.865339,16
1580,California,CA,37.6090291,-121.899142,2
1581,Acton,CA,34.48074149999999,-118.1868378638664,6
1582,Dixon,CA,38.4454641,-121.8232958,6
1583,Yuba city,CA,39.1404477,-121.6169108,2
1584,Myers Flat,CA,40.2662524,-123.8703146,1
1585,Anza Borrego,CA,33.09553545,-116.30189771497848,2
1586,Greenbrae,CA,37.9485356,-122.5247031,1
1587,Mad River,CA,40.8746153,-123.9895471,1
1588,Waterford,CA,37.6413202,-120.7604834,2
1589,Los Angeles/Highland Park,CA,34.1136199,-118.1864612,1
1590,Alta Loma,CA,34.122887,-117.5985775,7
1591,Los Angeles (Watts),CA,33.9459968,-118.2403654920837,1
1592,Los Angeles (Watts},CA,33.9459968,-118.2403654920837,1
1593,Little Lake,CA,35.9366136,-117.9067408,1
1594,Escondido,CA,33.1216751,-117.0814849,77
1595,Arbuckle,CA,39.016874900000005,-122.06245996879376,4
1596,Tahoe City,CA,39.1689372,-120.143478,7
1597,La Selva Beach,CA,36.936571,-121.8627775,1
1598,Monterey,CA,36.2231079,-121.387742,36
1599,Lone Pine,CA,36.6049644,-118.0631279,8
1600,Lotus,CA,38.801568,-120.9085501,1
1601,Yuba City,CA,39.1404477,-121.6169108,18
1602,Long Barn,CA,38.0929762,-120.1343539,2
1603,Stanton,CA,33.79410005,-117.99510059728792,4
1604,Los ngeles,CA,34.0536909,-118.242766,1
1605,McFarland,CA,35.6780104,-119.2292748,1
1606,Paramount,CA,33.898917,-118.171005,11
1607,Midway City,CA,33.7457982,-117.9834996,2
1608,Atwater,CA,37.3477174,-120.609084,14
1609,Fullerton,CA,33.8708215,-117.9294165,39
1610,California City,CA,35.125801,-117.9859038,5
1611,RANCHO CORDOVA,CA,38.5890723,-121.302728,1
1612,Weaverville,CA,40.756494,-122.9366462745098,6
1613,Catalina Island,CA,33.38890375,-118.42392875335275,4
1614,Biggs,CA,39.4123876,-121.712751,2
1615,Petaluma,CA,38.2325829,-122.636465,38
1616,Ladera Ranch,CA,33.5520801,-117.6384556,2
1617,Big Bear Lake,CA,34.2440587,-116.91018,6
1618,Cerritos,CA,33.8644291,-118.0539323,11
1619,Bloomington,CA,34.07029,-117.395879,7
1620,Manteca,CA,37.81623435,-121.22178815385232,22
1621,Santa Maria,CA,34.9531295,-120.435857,35
1622,Victoria Island,CA,37.8899253,-121.5346722,1
1623,Groveland,CA,37.8382608,-120.2326894,2
1624,Patterson,CA,37.471623,-121.1296949,20
1625,Cajon Pass,CA,34.3252897,-117.4286824,1
1626,Dana point,CA,33.4669721,-117.6981075,2
1627,Arleta,CA,34.2413266,-118.4322047,3
1628,Claremont,CA,34.0966764,-117.7197785,26
1629,Seaside,CA,36.62593,-121.8169383456945,11
1630,Highland,CA,34.11213,-117.1807973,17
1631,West Los Angeles (Brentwood),CA,34.0533223,-118.4676484,1
1632,rancho mission viejo,CA,33.4805821,-117.5675468,1
1633,Strawberry valley,CA,39.564057,-121.1069018,1
1634,Pollock Pines,CA,38.7497125,-120.57766446881608,11
1635,Marina Del Rey,CA,33.9776848,-118.448647,8
1636,Windsor,CA,38.5471327,-122.8163802,16
1637,West Sacramento,CA,38.5804609,-121.530234,10
1638,Pleasanton,CA,37.6624312,-121.8746789,23
1639,El Monte,CA,34.0751571,-118.036849,12
1640,Cool,CA,38.8870494,-121.0157991,2
1641,Stevenson Ranch,CA,34.3881783,-118.5853957,4
1642,secret,CA,39.170762,-120.8778894,1
1643,Sun City,CA,33.7010223,-117.2027867,7
1644,Jurupa Valley,CA,33.9798472,-117.4515754,1
1645,Elverta,CA,38.713791,-121.4627326,4
1646,Crescent City,CA,41.8528065,-124.14986198309552,20
1647,Rancho Santa Margarita,CA,33.6408845,-117.6029341,16
1648,Pomona,CA,34.0553813,-117.7517496,38
1649,Citrus Heights,CA,38.7071247,-121.2810611,35
1650,Fort Jones,CA,41.607158,-122.8411662,2
1651,Scotts Valley,CA,37.0510595,-122.014684,1
1652,Trinidad,CA,41.059291,-124.143125,7
1653,Cypress,CA,33.8248235,-118.0399368,10
1654,Orleans,CA,41.3015154,-123.5411704,3
1655,Durham,CA,39.62743635,-121.80443748086392,3
1656,Inglewood,CA,33.9562003,-118.353132,10
1657,Arcata,CA,40.866517,-124.08284,16
1658,Calabasas,CA,34.1446643,-118.644097,13
1659,Montebello,CA,34.0159398,-118.111975,26
1660,Alhambra,CA,34.093042,-118.12706,15
1661,Tracy,CA,37.7385507,-121.4201395,34
1662,Lamont,CA,35.26407635,-118.91424913852792,2
1663,Palm Spring,CA,32.9190669,-116.2183289,2
1664,Hesperia,CA,34.4263886,-117.3008784,28
1665,El Sobrante,CA,37.9744635,-122.30572940306472,4
1666,Lodi,CA,38.097198,-121.3878496465736,25
1667,RIO VISTA,CA,38.1557502,-121.6913439,1
1668,Danville,CA,37.8225892,-122.0008254,12
1669,Coronado,CA,32.6915199,-117.1766947,5
1670,Twentynine Palms,CA,34.1356915,-116.0543506,1
1671,Cardiff,CA,33.6885223,-117.8071872,5
1672,Rohnert Park,CA,38.3396367,-122.7010984,33
1673,La Verne,CA,34.1008426,-117.7678355,5
1674,Sunland,CA,34.2669466,-118.3023,6
1675,Rancho Cordova,CA,38.5890723,-121.302728,14
1676,Sacramento/Citrus Heights,CA,38.710458,-121.2921725,1
1677,McKinleyville,CA,40.966005,-124.102789774524,8
1678,Summerland,CA,34.4213845,-119.5965173,2
1679,Pinole,CA,38.0043667,-122.2988587,7
1680,LaVerne,CA,40.409481,-120.652225,2
1681,Hat Creek,CA,40.8304382,-121.5135921,3
1682,El Cajon/La Mesa,CA,32.7684289,-117.0352526,1
1683,Pittsburg,CA,38.0181745,-121.8901232,19
1684,Galt,CA,38.3012325,-121.33103724662058,11
1685,Gasquet,CA,41.8455506,-123.976772,2
1686,Anderson,CA,40.448208,-122.297781,23
1687,Huntington beach,CA,33.6783336,-118.0000166,2
1688,Scottsdale,CA,37.9160212,-122.02522851840784,1
1689,Hoopa,CA,41.064039,-123.685687,1
1690,Carson,CA,33.8322043,-118.2517547,13
1691,Ojai,CA,34.4480495,-119.242889,18
1692,Port Hueneme,CA,34.1477558,-119.1951559,7
1693,Cardiff By The Sea,CA,33.0220155,-117.2803463,1
1694,Grand Terrace,CA,34.0339031,-117.313654,7
1695,Alamo,CA,37.855102,-122.00666961517742,3
1696,Calaveras County,CA,38.2558181,-120.4981492,1
1697,El Dorado Hills,CA,38.67716825,-121.06431968581433,12
1698,Nevada city,CA,39.2615606,-121.0160594,1
1699,Berkeley,CA,37.87549965,-122.2390685139518,36
1700,Rio Linda,CA,38.6873975,-121.45938031564836,4
1701,Lakewood,CA,33.8503463,-118.117191,27
1702,Fairfax,CA,37.9872935,-122.587967,7
1703,Marin County,CA,38.0409144,-122.6199638,7
1704,Ripon,CA,37.741595,-121.124382,6
1705,Baldwin Hills Estates,CA,39.5284067,-104.7547539,1
1706,Standish,CA,40.3651768,-120.4221645,2
1707,Isleton,CA,38.1618614,-121.61162,1
1708,Maxwell,CA,39.2770035,-122.192406,2
1709,Orange County,CA,33.7500378,-117.8704931,7
1710,Mission viejo,CA,33.5965685,-117.659405,1
1711,Goleta,CA,34.4358295,-119.8276389,25
1712,El Centro,CA,32.792,-115.563051,20
1713,Gonzales,CA,36.5080741,-121.4447041,3
1714,Venice Beach,CA,33.97996005,-118.4687710293081,2
1715,Anaheim Hills,CA,33.8444082,-117.7773862,10
1716,Del Mar,CA,32.9594891,-117.2653146,11
1717,Sea Ranch,CA,38.7149778,-123.455009,2
1718,Los Molinos,CA,40.01727265,-122.09027623670352,3
1719,Castaic,CA,34.4888822,-118.6228656,5
1720,Norco,CA,33.9323307,-117.5508901,5
1721,La Conchita,CA,34.3641804,-119.4478558,3
1722,elsinore,CA,33.6680772,-117.3272615,1
1723,Pico Rivera,CA,33.9830688,-118.096735,21
1724,Woodfords,CA,38.7757093,-119.8238077,1
1725,Homeland,CA,33.7456205,-117.10775063421292,2
1726,Raymond,CA,37.2171683,-119.9054382,1
1727,Morgan hill,CA,37.130408,-121.6544974,1
1728,Palms Springs,CA,33.7974602,-116.53552846804826,1
1729,Ocotillo Wells,CA,33.1441418,-116.1332011,1
1730,Oro Grande,CA,34.5988813,-117.3342134,2
1731,El Pescadero,CA,34.4169473,-119.858775,1
1732,Gustine,CA,37.2577171,-120.9988154,4
1733,Fort Seward,CA,40.222922,-123.6433637,1
1734,Newberry Springs,CA,34.8272104,-116.6883644,3
1735,Blythe,CA,33.6134767,-114.5937537,16
1736,Westminster,CA,33.7578725,-117.9859054,22
1737,Playa Vista,CA,33.9760102,-118.4181654,2
1738,Pioneertown,CA,34.1557575,-116.4962719,1
1739,Fairfield,CA,38.2493581,-122.039966,53
1740,Coto De Caza,CA,33.6037312,-117.586958,3
1741,FairPlay,CA,38.5804245,-120.6611926,1
1742,Fair play,CA,38.5935173,-120.6604855,1
1743,Lake los angeles,CA,34.6124905,-117.828119,1
1744,Marina,CA,36.6900986,-121.80062933026213,5
1745,Royal oaks,CA,36.8388052,-121.6701812,1
1746,San jose,CA,37.3361663,-121.890591,2
1747,Hollywood,CA,34.0980031,-118.329523,32
1748,Hawthorne,CA,33.9188589,-118.3483256,12
1749,Marysville,CA,39.1457247,-121.5913516,17
1750,Yorba Linda,CA,33.8901096,-117.8249705,17
1751,Hunting Beach,CA,28.980346,-81.040687,1
1752,San Dimas,CA,34.1066756,-117.8067257,16
1753,Bass Lake,CA,37.3246665,-119.5662539,2
1754,Perris,CA,33.7825194,-117.2286478,20
1755,Phillipsville,CA,40.2090317,-123.785866,1
1756,Mira Loma,CA,33.98208635,-117.51535113578817,7
1757,Duarte,CA,34.1394513,-117.9772873,9
1758,Palermo,CA,39.4354432,-121.538024,1
1759,Barham,CA,34.7279102,-120.220567,1
1760,Tiburon,CA,37.8844389,-122.454565,5
1761,Arcadia,CA,34.1362075,-118.0401497,16
1762,Winchester,CA,33.7068274,-117.084388,3
1763,Milpitas,CA,37.4332273,-121.8989248,16
1764,South Pasadena,CA,34.1133062,-118.1478291,11
1765,Hayfork,CA,40.5543106,-123.1830839,4
1766,Bakersfield? (east of),CA,35.386625,-118.977322,1
1767,Riverbank,CA,37.7360396,-120.9354895,10
1768,Firebaugh,CA,36.8588376,-120.456007,4
1769,Aliso Viejo,CA,33.5761376,-117.7258122,16
1770,Tres Pinos,CA,36.7899573,-121.321043,3
1771,Buellton,CA,34.6134727,-120.193669,4
1772,Saratoga,CA,37.2638324,-122.0230146,6
1773,Piedmont,CA,37.8243715,-122.231635,2
1774,Boron,CA,35.01992715,-117.66791822379916,2
1775,Red Bluff,CA,40.1784279,-122.235923,14
1776,Carmel-By-The-Sea,CA,36.5552656,-121.923278,2
1777,BURBANK,CA,34.1812089,-118.307201,1
1778,Phoenix area,CA,37.409034950000006,-121.94382991610428,1
1779,Lakeport,CA,39.0429506,-122.915829,8
1780,Idyllwild,CA,33.7402774,-116.7189424,5
1781,Big Bear,CA,34.267886,-116.84859785319148,8
1782,San Ramon,CA,37.7648021,-121.9544387,19
1783,South Gate,CA,33.9463456,-118.200981,15
1784,Randsburg,CA,35.369361,-117.65985508256202,2
1785,North Palm Springs,CA,33.9227924,-116.5430685,2
1786,Tujunga,CA,34.252225,-118.2884105,8
1787,Monterey Park,CA,34.051522,-118.129807,9
1788,San jacinto,CA,33.7839664,-116.9589086,1
1789,Ouray,CA,35.325649,-119.085395,1
1790,modesto,CA,37.6390972,-120.9968782,1
1791,Mammoth Lakes,CA,37.6432525,-118.9668509,8
1792,Wildomar,CA,33.5939372,-117.2414989,12
1793,Nevada,CA,39.3540335,-120.8089843,1
1794,Foresthill,CA,39.0019935,-120.82540181422368,5
1795,Wrightwood,CA,34.3608341,-117.633388,6
1796,Hermosa Beach,CA,33.86428,-118.39591,9
1797,Thermal,CA,33.6403013,-116.1394485,1
1798,Sequoia National Park,CA,36.49584065,-118.55991938438645,3
1799,Jackson,CA,38.3488024,-120.774101,4
1800,Corning,CA,39.9276572,-122.179155,4
1801,Laguna Beach,CA,33.5426975,-117.785366,21
1802,Newman,CA,37.3139487,-121.0204222,3
1803,Weed,CA,41.42265,-122.386127,10
1804,Encino,CA,34.1591324,-118.5016166,13
1805,Baker,CA,35.0421963,-117.6675604,8
1806,San Pablo,CA,37.9621457,-122.3455263,8
1807,Gilroy,CA,37.0065078,-121.5631723,24
1808,City of Industry,CA,34.0182252,-117.9593061,3
1809,Niland,CA,33.2376852,-115.51355374359429,2
1810,Sherman Oaks (Los Angeles),CA,34.1508718,-118.4489865,2
1811,Wonder Valley,CA,34.1657242,-115.9037018,2
1812,Aptos,CA,36.993645,-121.89194984597702,10
1813,San Simeon,CA,35.6133158,-121.1442346,1
1814,Kentfield,CA,37.9519958,-122.5572116,4
1815,Mountain View,CA,37.3893889,-122.0832101,19
1816,Avenal,CA,36.0041223,-120.1290272,7
1817,Hacienda Heights,CA,33.9930677,-117.968675,5
1818,San Fernando,CA,34.28497,-118.437652,12
1819,Marina del Rey,CA,33.9776848,-118.448647,10
1820,Eldorado Hills,CA,33.8475535,-117.8141678,1
1821,Willows,CA,39.5233276,-122.193531,4
1822,Hayward/San Lorenzo,CA,37.65906510000001,-122.1213368359861,1
1823,Lake California (Cottonwood),CA,40.3542804,-122.213371,1
1824,Healdsburg,CA,38.653839000000005,-122.8999319434018,15
1825,Cobb,CA,38.8221258,-122.723045,4
1826,South El Monte,CA,34.0519548,-118.0467339,5
1827,Strathmore,CA,36.141569,-119.05984759028097,1
1828,Boulder Creek,CA,37.13785985,-122.12183247290022,8
1829,Sausalito,CA,37.8590272,-122.485469,6
1830,Interstate 80,CA,39.5105134,-119.6645314,1
1831,Copperopolis,CA,37.941764,-120.63679473786408,2
1832,Forebay,CA,39.2429484,-120.7354863,1
1833,Los Alamos,CA,34.7379311,-120.26591046240952,6
1834,Venture,CA,33.659586,-117.7533944,1
1835,Mecca,CA,33.5511969,-116.06970822122544,3
1836,Saticoy,CA,34.2836433,-119.1490674,1
1837,Guerneville,CA,38.5017085,-122.9959133,4
1838,Phelan,CA,34.426298,-117.5725026,10
1839,Clear Lake,CA,39.0319478,-122.79947762463578,3
1840,Carlotta,CA,40.537357,-124.0606039,2
1841,Montgomery Creek,CA,40.8394,-121.92327378349349,1
1842,Los Feliz,CA,34.1076561,-118.2875062,3
1843,antelope,CA,38.7082357,-121.3299513,1
1844,Burbank/Glendale,CA,34.20317265,-118.35917824388532,2
1845,Elkhorn Blvd,CA,38.6838115,-121.452466,1
1846,Discovery Bay,CA,37.914774,-121.59400523623852,7
1847,Byron,CA,37.874063,-121.63465739329897,2
1848,Truckee,CA,39.327962,-120.1832533,14
1849,Bridgeport,CA,38.255757,-119.2312665,5
1850,Fort Bragg,CA,39.4193555,-123.80454008333334,8
1851,Castella,CA,41.1384854,-122.3177877,1
1852,Dunnigan,CA,38.8851773,-121.9696908,1
1853,Haywood,CA,34.2479785,-118.2733371,1
1854,San Anselmo,CA,37.9744323,-122.561503,14
1855,Chino Hills/Corona,CA,33.91604865,-117.76025996518584,1
1856,Wood Ranch,CA,36.7493949,-120.6390661,1
1857,Santa Ynez,CA,34.608637,-120.10467742149731,2
1858,Livingston,CA,37.3868826,-120.723532,2
1859,Ceres,CA,37.5949316,-120.9577098,8
1860,San Ysidro,CA,32.5520013,-117.0430813,4
1861,Oak Hills,CA,34.3997225,-117.3406015,1
1862,Dana Point,CA,33.4669721,-117.6981075,24
1863,Rolling Hills Estates,CA,33.7877943,-118.3581284,1
1864,Salton Sea,CA,33.312590650000004,-115.78148849148695,6
1865,Upper Lake,CA,39.1646129,-122.910551,2
1866,Long beach,CA,33.7690164,-118.191604,1
1867,Moss Beach,CA,37.5282106,-122.5126835511128,2
1868,Arvin,CA,35.209129,-118.828431,1
1869,Buena Park,CA,33.870413,-117.9962165,21
1870,Agoura Hills,CA,34.14791,-118.7657042,10
1871,Rancho Bernado,CA,38.0161265,-121.9707047,2
1872,los angeles,CA,34.0536909,-118.242766,1
1873,Hornbrook,CA,41.90929,-122.56059752741616,1
1874,Arcadia/Monrovia,CA,34.1808276,-118.0279669,1
1875,Cupertino,CA,37.3228934,-122.0322895,8
1876,Kramer Junction,CA,34.9923359,-117.5415876,1
1877,National City,CA,32.6781085,-117.0991967,9
1878,Pittsburg/Antioch,CA,38.0177934,-121.8162185,4
1879,Newhall,CA,34.3798765,-118.5291917,7
1880,Capitola,CA,36.9762927,-121.954057,15
1881,Los Angeles/Arts District,CA,34.04097055,-118.23551261601958,1
1882,East Los Angeles,CA,34.0239015,-118.172015,7
1883,San Gabriel,CA,34.0990733,-118.1085682,11
1884,Sunnyvale,CA,37.3688301,-122.036349,24
1885,Glendale/Pasadena,CA,34.20317265,-118.35917824388532,1
1886,Walnut,CA,33.7085883,-117.7926096,6
1887,Costa Mesa,CA,33.6633386,-117.903317,34
1888,Rancho San Diego,CA,32.76105,-116.9182828602241,2
1889,Mount Washington,CA,39.724897,-120.7135541,1
1890,Western Oregon,CA,44.8825671,-122.9616895,1
1891,Sheridan,CA,38.9796179,-121.3755114,1
1892,West Los Angeles,CA,34.0468546,-118.430254,12
1893,Porter Ranch,CA,34.2818164,-118.5612714,7
1894,Oak Park,CA,34.1792025,-118.7619719,7
1895,Hastings Ranch,CA,34.167639,-118.0731571,1
1896,Yountville,CA,38.4022008,-122.359506,5
1897,E. Rio Vista,CA,39.1701025,-121.6456224,1
1898,Kearny Mesa,CA,32.8289243,-117.142415,1
1899,Georgetown,CA,38.9072855,-120.83023057045894,1
1900,Jalama Beach,CA,34.50676115,-120.5001930848355,1
1901,Benton Hot Springs,CA,37.8005332,-118.5281854,1
1902,"Malibu,",CA,34.0319521,-118.6884187,1
1903,Sun Valley,CA,34.2204227,-118.3878945,6
1904,Green Valley Lake,CA,34.2408403,-117.0772605,1
1905,La Habra,CA,33.9316066,-117.9454867,12
1906,Santa rosa,CA,38.4404925,-122.7141049,1
1907,Anahiem,CA,33.86620805,-117.74933332026752,1
1908,Montrose,CA,34.2064181,-118.2288887,3
1909,Yreka,CA,41.732616,-122.637766,7
1910,Suisun City,CA,38.2382474,-122.040244,1
1911,Eagle Rock,CA,34.1390325,-118.2140958,7
1912,Sonoma (Fetters Hot Springs),CA,38.3399575,-122.4947692,1
1913,Korbel,CA,40.8704078,-123.9583922,1
1914,Yosemite National Park,CA,37.83930035,-119.51646348068644,7
1915,Berry Creek,CA,39.6350312,-121.390961,4
1916,Kings Beach,CA,39.2362794,-120.023362,2
1917,Delano,CA,35.7688425,-119.2470536,3
1918,Pleasant Hill,CA,37.9479786,-122.0607963,11
1919,san jose,CA,37.3361663,-121.890591,1
1920,Taft,CA,35.1424671,-119.456507,10
1921,Lake Los Angeles,CA,34.6124905,-117.828119,1
1922,Pebble Beach,CA,36.5672414,-121.9442134,3
1923,Salt Point State Park,CA,38.57721625,-123.31249058539396,1
1924,Rowland Heights,CA,33.9761238,-117.905339,4
1925,Calexico,CA,32.6790572,-115.498703,4
1926,Brawley,CA,32.9786566,-115.530267,8
1927,Pacific Beach,CA,32.7978268,-117.2403183,3
1928,Valley Center,CA,33.226192999999995,-117.0291299794908,5
1929,La Mirada,CA,33.9060971,-118.0107092,13
1930,Boulevard,CA,32.6636712,-116.273629,1
1931,Coachella Valley,CA,33.7672351,-116.3560439,3
1932,Miramar,CA,32.8803269,-117.1516295967125,1
1933,Volcano,CA,38.4427907,-120.6309635,1
1934,Lakehead,CA,40.90515,-122.3791777,1
1935,West Lake Village,CA,39.32214315,-120.29021447714896,1
1936,Pinion Hills,CA,39.1501882,-119.7007335,2
1937,Redway,CA,40.12179,-123.82270559015384,2
1938,Los Angeles/Sherman Oaks,CA,34.1512227,-118.44368744483516,1
1939,Antelope Valley,CA,34.915437,-118.0055620731188,2
1940,Davenport,CA,37.0116166,-122.1919134,3
1941,Shafter,CA,35.489483199999995,-119.22079491109946,7
1942,Templeton,CA,35.5496939,-120.706004,4
1943,Redwood City,CA,37.4863239,-122.232523,16
1944,American Canyon,CA,38.223457,-122.22704307123536,7
1945,Terra Linda,CA,38.0040893,-122.5497,2
1946,Oregon House,CA,39.3562796,-121.2791273,2
1947,Topanga,CA,34.0897,-118.6029649,3
1948,Shingle Springs,CA,38.671387,-120.94054470702578,4
1949,La Puente,CA,34.0280619,-117.953097,15
1950,Valle Vista,CA,33.754125,-116.89269042493814,1
1951,Bucks Lake,CA,39.8796775,-121.14860970806625,1
1952,Silverlake,CA,33.9520344,-117.55282339593693,1
1953,Downy,CA,44.2888142,-72.5653398,1
1954,Morongo valley,CA,34.0537585,-116.59672363338927,1
1955,Grapevine,CA,34.9416383,-118.9301004,3
1956,Clayton,CA,37.9410341,-121.9357925,3
1957,La Canada,CA,33.730448,-117.7635725,4
1958,Angels Camp,CA,38.0695732,-120.540503,4
1959,Avalon,CA,33.34221,-118.3272612,7
1960,Essex,CA,34.7336097,-115.2449794,1
1961,oxnard,CA,34.1976308,-119.1803818,1
1962,Beaumont,CA,33.9299925,-116.9763092,7
1963,Lake Hughes,CA,34.6774576,-118.4487112,1
1964,Anza,CA,33.5559483,-116.6745701,2
1965,Mariposa County,CA,37.570148,-119.9036592,1
1966,Frazier Park,CA,34.8227556,-118.9448219,5
1967,Boonville,CA,39.0091667,-123.3661111,2
1968,Alpaugh,CA,35.8877316,-119.4873422,1
1969,Oceano,CA,35.0988648,-120.612393,3
1970,Anaheim (NE  of),CA,33.8347516,-117.911732,1
1971,San diego,CA,32.7174202,-117.1627728,1
1972,Colfax,CA,39.1007902,-120.9532947,1
1973,Mount Laguna,CA,32.8669744,-116.4188217,1
1974,Palomar Mountain,CA,33.3228128,-116.8786359,2
1975,East Oroville,CA,39.5075455,-121.4723131400223,1
1976,Laguna Niguel,CA,33.5225261,-117.7075526,25
1977,Valley Village,CA,34.1637147,-118.3965758,6
1978,Fair Oaks,CA,38.642897000000005,-121.24624532104002,15
1979,Amsterdam,CA,37.4302157,-120.5421392,1
1980,Gerber,CA,40.0562678,-122.150268,1
1981,Joshua Tree National Park,CA,33.89706715,-115.95111578868344,6
1982,Dos Palos,CA,36.9860582,-120.626572,2
1983,Baldwin park,CA,34.0854739,-117.9611761,1
1984,soledad,CA,36.4281798,-121.32466432032044,1
1985,Castiac,CA,35.2593696,-120.6667638,2
1986,Maywood,CA,33.9866807,-118.185349,7
1987,El Segundo,CA,33.917028,-118.4156337,10
1988,Palos Verdes Estates,CA,33.7872386,-118.401813,4
1989,Bartow,CA,40.9300852,-124.0957394,1
1990,Shasta Lake,CA,40.6799638,-122.3626507,8
1991,Paradise,CA,39.7596061,-121.6219177,10
1992,Blocksburg,CA,40.2759769,-123.6364206,2
1993,Pine Grove,CA,39.3493389,-123.8141821,1
1994,Edwards,CA,34.9260827,-117.9350683,2
1995,Rubidoux,CA,33.99431195,-117.42376599221046,2
1996,Carpenteria,CA,33.7274177,-117.7680934,1
1997,Los Angeles (Venice Beach),CA,33.89303135,-118.36550392025713,1
1998,Granite Bay,CA,38.7632346,-121.1638361,8
1999,Sutherlin,CA,38.2690686,-122.0653498,1
2000,Corona del Mar,CA,33.5995916,-117.8737398,6
2001,Orangevale,CA,38.6840715,-121.21839903078865,12
2002,Toluca Lake,CA,34.1521688,-118.357141,3
2003,Moorpark,CA,34.285558,-118.8820414,11
2004,Sky Valley,CA,33.890015,-116.3525097,1
2005,Otay Mesa,CA,32.560058,-116.9361338,1
2006,East Los Angeles (Boyle Heights),CA,34.0429993,-118.2207177,1
2007,Montague,CA,41.728267,-122.527392,2
2008,Loleta,CA,40.6408678,-124.2244729,2
2009,sacramento,CA,38.5810606,-121.493895,1
2010,Ocean Beach,CA,32.7448067,-117.2476067,4
2011,Monrovia,CA,34.1483499,-118.0014517,14
2012,All over,CA,39.111627,-84.519427,1
2013,Yosemite,CA,33.8765114,-117.6637012,7
2014,Bay Area,CA,37.7884969,-122.3558473,1
2015,Mira Mesa,CA,32.915602,-117.1439226,2
2016,Litchfield,CA,40.3826772,-120.3871634,1
2017,29 Palms,CA,34.1356915,-116.0543506,2
2018,Knights Landing,CA,38.8004516,-121.7201424,1
2019,Ozena,CA,34.694623,-119.321963,1
2020,Lomira,CA,34.0881489,-117.8529084,1
2021,Boyle Heights,CA,34.0436892,-118.2097684,1
2022,Carmel Valley,CA,36.4796839,-121.732447,5
2023,Soledad,CA,36.4281798,-121.32466432032044,2
2024,Cardiff by The Sea,CA,33.0220155,-117.2803463,1
2025,Isla Vista,CA,34.4115125,-119.8562131,3
2026,Filmore,CA,32.6205405,-116.9968468,1
2027,East Hemet,CA,33.7386312,-116.9390169337224,1
2028,Morgan Hill,CA,37.130408,-121.6544974,16
2029,La Crescenta,CA,34.230429,-118.2350733,7
2030,Diamond Bar,CA,34.0286226,-117.8103367,9
2031,Avocado Heights,CA,34.04066505,-117.9972641612726,1
2032,Williams,CA,39.1546137,-122.149418,2
2033,Venice beach,CA,33.97996005,-118.4687710293081,1
2034,Clairemont,CA,32.8195052,-117.1823399,1
2035,Fall River Mills,CA,41.00455615,-121.44117792686552,3
2036,Pacoima,CA,34.2625025,-118.427027,5
2037,Armona,CA,36.315894,-119.7024315,2
2038,Winchester (French Valley),CA,33.6018921,-117.1151321,1
2039,Signal hill,CA,33.804826,-118.168259,1
2040,San Carlos,CA,37.504936,-122.261823,6
2041,Moro Bay,CA,33.5743419,-117.7946533,2
2042,Loma Linda,CA,34.0537971,-117.2610925,4
2043,Los Olivos,CA,34.6677646,-120.114847,1
2044,Pacifica/Daly City,CA,37.6868536,-122.469997,1
2045,Pismo,CA,33.7312058,-117.7697509,4
2046,Spring valley,CA,32.729639500000005,-116.9668617593562,1
2047,Lawndale,CA,33.8885217,-118.3531991,5
2048,Marina del Rey/Playa Vista,CA,33.9823764,-118.4179909,1
2049,Mt. Laguna,CA,32.8669744,-116.4188217,4
2050,Goleta (Goleta Beach Park),CA,34.4165634,-119.8327997608174,1
2051,East Palo Alto,CA,37.4688273,-122.141075,2
2052,N. Hollywood,CA,34.1649502,-118.3747521,3
2053,Coalinga,CA,36.16101585,-120.29451920454292,15
2054,Los Alamitos,CA,33.8038865,-118.0772433,6
2055,Lake Arrowhead,CA,34.2585615,-117.18300401517855,10
2056,Universal City,CA,34.1419417,-118.358445,3
2057,Shell Beach,CA,35.1552532,-120.6723949,2
2058,Reno,CA,39.7919127,-120.0997813,1
2059,La Canada Flintridge,CA,34.1998302,-118.2005236,2
2060,Rohnert park,CA,38.3396367,-122.7010984,1
2061,West Sonoma County,CA,38.5071534,-122.7565621,1
2062,Reedley,CA,36.5963395,-119.450402,3
2063,San Fernando Valley,CA,34.2148853,-118.4998204,12
2064,San Bernardino/Highland,CA,34.1368689,-117.34624,1
2065,Paramus,CA,42.7268986,-83.4145584,1
2066,Del Rosa/San Bernardino,CA,34.148899,-117.243375,1
2067,Ocala,CA,37.3349983,-121.8288922,1
2068,Caribou,CA,40.077047,-121.1618334906542,1
2069,Laguna beach,CA,33.5426975,-117.785366,1
2070,South Los Angeles,CA,33.9282906,-118.2788135,1
2071,Highland Park,CA,34.1099469,-118.1969828,2
2072,Valley Springs,CA,38.1847255,-120.8071039327562,11
2073,Westport,CA,39.6357148,-123.7830734,1
2074,CLEAR LAKE,CA,39.0319478,-122.79947762463578,1
2075,Madera Ranchos,CA,36.9310591,-119.8815418,1
2076,Murrietta,CA,37.671743,-120.969163,1
2077,Encinitas Carlsbad,CA,33.0817892,-117.2080709,1
2078,Pacific Grove,CA,36.6211149,-121.9177944,9
2079,Rio Dell,CA,40.499301,-124.106437,2
2080,Los Angeles (Westlake Village),CA,34.1389972,-118.8192843,1
2081,Westchester,CA,33.9597349,-118.400632,3
2082,Santa Barbara County,CA,34.7136533,-119.9858232,1
2083,Lennox,CA,33.9390306,-118.3574427,1
2084,Potter Valley,CA,39.3221089,-123.113059,3
2085,Hinkley,CA,34.9347025,-117.1992124,3
2086,Hidden Valley,CA,37.8288442,-121.97591584725988,1
2087,Woodlake,CA,36.4134809,-119.098633,2
2088,Grover Beach,CA,35.1209452,-120.621837,8
2089,North Sacramento,CA,38.6060158,-121.4574543,1
2090,Venice,CA,33.995044,-118.4668875,25
2091,Escalon,CA,37.7974273,-120.9966033,3
2092,Cardiff by the Sea,CA,33.0220155,-117.2803463,1
2093,fort  bragg,CA,39.4534731,-123.81491141575005,1
2094,Fresno County,CA,36.6713502,-119.8155355,1
2095,Temple City/Arcadia,CA,34.1243375,-118.0644286,1
2096,Pine Mountain Club,CA,34.8447503,-119.15781322893068,2
2097,Stanford,CA,37.4265407,-122.17030545534064,4
2098,Mariposa,CA,37.570148,-119.9036592,9
2099,Rio Del Mar,CA,36.9524465,-121.88103587507156,1
2100,Saugus,CA,34.4493489,-118.5168257,9
2101,Westwood,CA,34.0668947,-118.439944,4
2102,Rough and Ready,CA,39.2295981,-121.138682,2
2103,Three Rivers,CA,36.4388364,-118.9045445,4
2104,Santa Ysabel,CA,33.1092099,-116.673076,1
2105,San Marcos/Vista,CA,33.16310695,-117.20177883976902,1
2106,Pearblossom,CA,34.506383,-117.9097881,3
2107,Lake Port,CA,38.0451901,-122.1887482,1
2108,Vandenberg Village,CA,34.7116502,-120.46068349101884,2
2109,Mt. Shasta,CA,41.4091897,-122.194953,2
2110,Mckittrick,CA,35.295416,-119.6296285661846,1
2111,Santa Ana/Tustin,CA,33.7224813,-117.8262702,1
2112,Fillmore,CA,34.401749499999994,-118.917766849615,5
2113,Lake Alpine,CA,38.4763036,-119.9988057919521,3
2114,Pacheco,CA,37.990188,-122.06975043067992,4
2115,Carlsbad/Oceanside,CA,33.1681234,-117.3562157,1
2116,Orange Co/Riverside Co/San Diego Co,CA,33.646628500000006,-117.75417026412828,1
2117,Fremont CA,CA,37.5482697,-121.988571,1
2118,Bonny Doon,CA,37.0416156,-122.1505224,1
2119,Shasta City,CA,40.67327495,-122.36835314872796,1
2120,Laguna Woods,CA,33.6106076,-117.7249722,6
2121,Ocean Cove,CA,38.5551908,-123.3044528,1
2122,Crescent Mills,CA,40.10507,-120.92004479803768,1
2123,Salton Sea Beach,CA,33.377032,-116.01269452649072,1
2124,Comptche,CA,39.2648954,-123.5911224,2
2125,Hawthorne/Gardena,CA,40.6370259,-89.5006885,1
2126,Calimesa,CA,34.0039044,-117.0619774,3
2127,Azuza,CA,34.11,-117.924,2
2128,Manhatten Beach,CA,43.388918,-95.167584,2
2129,Llano,CA,34.5058282,-117.8178409,2
2130,Lenwood,CA,34.8861502,-117.10920598872929,2
2131,Pilot Hill,CA,38.8182337,-121.029666,1
2132,Topanga Beach,CA,34.03882055,-118.58162562500002,1
2133,EL Cajon,CA,32.7947731,-116.962526,1
2134,Kerman,CA,36.7235543,-120.059914,5
2135,Coto de Caza,CA,33.6037312,-117.586958,2
2136,Pilot hill,CA,38.8182337,-121.029666,1
2137,Balboa Island,CA,33.606555900000004,-117.89431432651638,1
2138,Sacramento (east),CA,38.6542406,-121.1248863,1
2139,Cornell,CA,34.1145215,-118.7778455,1
2140,Tehama,CA,40.1251334,-122.2015529,1
2141,Monterey Bay,CA,36.7999557,-121.9010668,1
2142,Pion Hills,CA,34.433331,-117.6467225,1
2143,Oildale,CA,35.42850705,-119.02399283807097,1
2144,Sultana,CA,36.54347435,-119.335513107832,2
2145,Walnut Creek/Concord,CA,37.9657881,-122.0544987,1
2146,Redwood Valley,CA,39.2654449,-123.204449,6
2147,Mentone,CA,34.070013,-117.13448,1
2148,Los Angeles/Silver Lake,CA,34.081151950000006,-118.27043662701752,1
2149,Upland California,CA,34.09751,-117.6483876,2
2150,San Jose (??),CA,37.3361663,-121.890591,1
2151,Brea,CA,33.9170444,-117.888855,10
2152,Solana Beach,CA,32.9905597,-117.269131,3
2153,Olivehurst,CA,39.0954484,-121.5521858,4
2154,San Diego County,CA,32.9637838,-116.7706277,1
2155,Marina Del Ray,CA,29.4552701,-98.3444058,1
2156,West Oakland,CA,37.8048919,-122.2951752,1
2157,Port of Long Beach,CA,33.754185,-118.216458,1
2158,Milford,CA,40.1712892,-120.3724376,2
2159,Cedarville,CA,41.5290606,-120.173278,3
2160,Beale AFB,CA,39.1087605,-121.35668977731362,3
2161,Point Arena,CA,38.908798,-123.693072,3
2162,Orangevale (Sacramento),CA,38.6840715,-121.21839903078865,1
2163,Old Station,CA,40.6751608,-121.43081,2
2164,Diamond Springs,CA,38.6798266,-120.82119422798166,2
2165,Cobb Mountain,CA,38.8074045,-122.740546,1
2166,Chicago Park,CA,39.178149000000005,-120.89114414333146,1
2167,Marin/San Rafael,CA,37.99800515,-122.5306405883693,1
2168,Prunedale,CA,36.7851358,-121.666641,3
2169,Clearlake Oaks,CA,39.017434,-122.65152068032448,1
2170,St. Helena,CA,38.5052288,-122.470042,1
2171,Foster City,CA,37.5600336,-122.2688522,7
2172,Lassen National Forest,CA,40.6252842,-121.4789143,1
2173,Commerce,CA,34.002581,-118.156586,3
2174,Pinon,CA,34.830263450000004,-119.0408740833238,1
2175,West Point,CA,38.4061555,-120.53791709612524,1
2176,Selma,CA,36.5707838,-119.6120765,3
2177,W. Sacramento,CA,38.5804609,-121.530234,5
2178,Scotts Valley,CA,37.0510595,-122.014684,4
2179,Loma Rica,CA,39.325933,-121.40605092884616,3
2180,Alpine,CA,38.5893934,-119.8345013,4
2181,Coloma,CA,38.7999014,-120.890216,2
2182,Point Richmond,CA,37.9240915,-122.3891383,2
2183,Lake Shasta,CA,40.6799638,-122.3626507,3
2184,Pala,CA,33.3653102,-117.076696,1
2185,Corralitos,CA,36.9951268,-121.78940989713632,3
2186,Collegeville,CA,37.9049252,-121.147442,1
2187,Culver CIty,CA,34.0211224,-118.396466,1
2188,"Huntington,beach",CA,33.639524,-117.9765496935195,1
2189,Bay Point,CA,38.0331145,-121.97930381529405,2
2190,Ventura/Oxnard,CA,34.2362545,-119.1932033,1
2191,Los Alamitos/Cypress,CA,33.8159912,-118.06371281509794,1
